[
    {
        "id": 88525,
        "name": "University of Iowa Hospitals & Clinic Heliport",
        "count": 18,
        "lat": "41.65999984741211",
        "lon": "-91.54769897460938"
    },
    {
        "id": 67152,
        "name": "Columbia St Mary's Heliport",
        "count": 58,
        "lat": "43.06096",
        "lon": "-87.88053"
    },
    {
        "id": 40899,
        "name": "Mason General Hospital Heliport",
        "count": 16,
        "lat": "47.22480010986328",
        "lon": "-123.11199951171875"
    },
    {
        "id": 40056,
        "name": "Boone Hospital Center Heliport",
        "count": 54,
        "lat": "38.95000076293945",
        "lon": "-92.31600189208984"
    },
    {
        "id": 62811,
        "name": "1001 Fourth Avenue Plaza Heliport",
        "count": 450,
        "lat": "47.6068000793457",
        "lon": "-122.33399963378906"
    },
    {
        "id": 62706,
        "name": "Brunswick Executive Airport",
        "count": 11,
        "lat": "43.89220047",
        "lon": "-69.93859863"
    },
    {
        "id": 65394,
        "name": "St. Luke's Hospital Heliport",
        "count": 18,
        "lat": "46.88359832763672",
        "lon": "-96.78559875488281"
    },
    {
        "id": 76827,
        "name": "City Hall Complex Heliport",
        "count": 291,
        "lat": "36.17219924926758",
        "lon": "-115.14099884033203"
    },
    {
        "id": 36380,
        "name": "Piac Heliport",
        "count": 14,
        "lat": "39.86259841918945",
        "lon": "-75.31050109863281"
    },
    {
        "id": 42181,
        "name": "Jobe Skis Plant 1 Heliport",
        "count": 40,
        "lat": "47.68539810180664",
        "lon": "-122.13600158691406"
    },
    {
        "id": 80119,
        "name": "Renton Municipal Airport",
        "count": 53,
        "lat": "47.4930992126",
        "lon": "-122.216003418"
    },
    {
        "id": 70661,
        "name": "St Johns Hospital Heliport",
        "count": 19,
        "lat": "39.80670166015625",
        "lon": "-89.64440155029297"
    },
    {
        "id": 26137,
        "name": "Wolomolopoag STOLport",
        "count": 13,
        "lat": "42.10070037841797",
        "lon": "-71.20780181884766"
    },
    {
        "id": 40739,
        "name": "Merritt Field",
        "count": 1,
        "lat": "41.41809844970703",
        "lon": "-76.5344009399414"
    },
    {
        "id": 41234,
        "name": "Tanner Medical Center Heliport",
        "count": 9,
        "lat": "33.570098876953125",
        "lon": "-85.07489776611328"
    },
    {
        "id": 67155,
        "name": "Willapa Harbor Heliport",
        "count": 5,
        "lat": "46.66320037841797",
        "lon": "-123.81199645996094"
    },
    {
        "id": 96836,
        "name": "Lucerne Medical Center Heliport",
        "count": 137,
        "lat": "28.530799865722656",
        "lon": "-81.37870025634766"
    },
    {
        "id": 94091,
        "name": "White Oak Stand Airport",
        "count": 7,
        "lat": "36.807899475097656",
        "lon": "-81.70120239257812"
    },
    {
        "id": 50274,
        "name": "Landmark Plaza Heliport",
        "count": 9,
        "lat": "40.78200149536133",
        "lon": "-73.82569885253906"
    },
    {
        "id": 20825,
        "name": "Cmmc Air Ambulance Landing Site Heliport",
        "count": 23,
        "lat": "44.10309982299805",
        "lon": "-70.21530151367188"
    },
    {
        "id": 87451,
        "name": "Pine Ridge Helistop",
        "count": 2,
        "lat": "26.490400314331055",
        "lon": "-81.93340301513672"
    },
    {
        "id": 75857,
        "name": "Flagler Hospital Heliport",
        "count": 31,
        "lat": "29.862199783325195",
        "lon": "-81.31670379638672"
    },
    {
        "id": 74475,
        "name": "Jerry Douglass Heliport",
        "count": 5,
        "lat": "44.058333",
        "lon": "-70.098611"
    },
    {
        "id": 11740,
        "name": "Fontana Police Heliport",
        "count": 31,
        "lat": "34.101716",
        "lon": "-117.433729"
    },
    {
        "id": 56837,
        "name": "P & A Deptford Heliport",
        "count": 10,
        "lat": "39.844600677490234",
        "lon": "-75.09130096435547"
    },
    {
        "id": 14981,
        "name": "Lebanon Hospital Heliport",
        "count": 10,
        "lat": "44.5515336263",
        "lon": "-122.907743454"
    },
    {
        "id": 62765,
        "name": "Flying Ridge Airstrip",
        "count": 21,
        "lat": "41.36819839477539",
        "lon": "-73.29119873046875"
    },
    {
        "id": 28863,
        "name": "Ernest A. Love Field",
        "count": 27,
        "lat": "34.65449905",
        "lon": "-112.4199982"
    },
    {
        "id": 54639,
        "name": "Kimshan Ranch Airport",
        "count": 2,
        "lat": "47.8400993347168",
        "lon": "-122.86000061035156"
    },
    {
        "id": 94395,
        "name": "Apex Airpark",
        "count": 14,
        "lat": "47.6567993164",
        "lon": "-122.733001709"
    },
    {
        "id": 57406,
        "name": "Cordova Municipal Airport",
        "count": 2,
        "lat": "60.5438995361",
        "lon": "-145.727005005"
    },
    {
        "id": 76968,
        "name": "Folsom Airport",
        "count": 4,
        "lat": "30.67259979248047",
        "lon": "-85.08350372314453"
    },
    {
        "id": 78547,
        "name": "Rockingham Memorial Hospital Heliport",
        "count": 7,
        "lat": "38.4401016235",
        "lon": "-78.8720016479"
    },
    {
        "id": 15511,
        "name": "Pearson Field",
        "count": 88,
        "lat": "34.98619842529297",
        "lon": "-92.63349914550781"
    },
    {
        "id": 25677,
        "name": "North Haven Heliport",
        "count": 3,
        "lat": "41.3672981262207",
        "lon": "-72.88009643554688"
    },
    {
        "id": 47838,
        "name": "Battle Creek Health System Helistop",
        "count": 12,
        "lat": "42.33089828491211",
        "lon": "-85.17890167236328"
    },
    {
        "id": 65384,
        "name": "Jacksonville Pre-Trial Detention Facility Heliport",
        "count": 106,
        "lat": "30.32550048828125",
        "lon": "-81.65070343017578"
    },
    {
        "id": 30871,
        "name": "St Luke's Boise Medical Center Heliport",
        "count": 62,
        "lat": "43.612701416",
        "lon": "-116.192001343"
    },
    {
        "id": 53886,
        "name": "Kenner Farm Airport",
        "count": 2,
        "lat": "35.88090133666992",
        "lon": "-83.72709655761719"
    },
    {
        "id": 55267,
        "name": "Med West-Hoover Heliport",
        "count": 5,
        "lat": "33.354794",
        "lon": "-86.85609"
    },
    {
        "id": 22828,
        "name": "Adams County Hospital Heliport",
        "count": 1,
        "lat": "38.794498443603516",
        "lon": "-83.53459930419922"
    },
    {
        "id": 82958,
        "name": "Manatee Memorial Hospital Heliport",
        "count": 33,
        "lat": "27.499167",
        "lon": "-82.562778"
    },
    {
        "id": 36064,
        "name": "Long Airport",
        "count": 3,
        "lat": "41.227500915527344",
        "lon": "-86.79029846191406"
    },
    {
        "id": 37676,
        "name": "Elk Grove Airport",
        "count": 14,
        "lat": "38.392398834228516",
        "lon": "-121.33100128173828"
    },
    {
        "id": 28986,
        "name": "Flying Dollar Ranch Airport",
        "count": 7,
        "lat": "44.287498474121094",
        "lon": "-87.7958984375"
    },
    {
        "id": 68820,
        "name": "Portland Heliport",
        "count": 11,
        "lat": "41.56589889526367",
        "lon": "-72.6415023803711"
    },
    {
        "id": 40225,
        "name": "Mc Kennan Hospital Heliport",
        "count": 20,
        "lat": "43.5340995789",
        "lon": "-96.71499633790002"
    },
    {
        "id": 56469,
        "name": "Valley Medical Center Heliport",
        "count": 86,
        "lat": "36.73720169067383",
        "lon": "-119.75399780273438"
    },
    {
        "id": 58635,
        "name": "Providence Medical Center Heliport",
        "count": 25,
        "lat": "45.52819824",
        "lon": "-122.6119995"
    },
    {
        "id": 67599,
        "name": "Ag-Alley Airport",
        "count": 3,
        "lat": "43.16109848022461",
        "lon": "-77.17749786376953"
    },
    {
        "id": 89940,
        "name": "Franconia Airport",
        "count": 5,
        "lat": "44.195899963378906",
        "lon": "-71.74949645996094"
    },
    {
        "id": 79161,
        "name": "Christus Spohn Hospital Memorial Heliport",
        "count": 37,
        "lat": "27.779800415039062",
        "lon": "-97.41419982910156"
    },
    {
        "id": 27872,
        "name": "Willamette Falls Community Hospital Heliport",
        "count": 19,
        "lat": "45.357601165771484",
        "lon": "-122.58599853515625"
    },
    {
        "id": 91308,
        "name": "Sfs Airpark",
        "count": 7,
        "lat": "48.03580093383789",
        "lon": "-122.77400207519531"
    },
    {
        "id": 23251,
        "name": "St Louise Regional Hospital Heliport",
        "count": 42,
        "lat": "37.035800933800004",
        "lon": "-121.571998596"
    },
    {
        "id": 35286,
        "name": "Barnes Jewish Hospital Heliport",
        "count": 86,
        "lat": "38.633399963378906",
        "lon": "-90.2500991821289"
    },
    {
        "id": 74898,
        "name": "Norfolk International Airport",
        "count": 14,
        "lat": "36.89459991455078",
        "lon": "-76.20120239257812"
    },
    {
        "id": 20179,
        "name": "Wayne Memorial Hospital Inc. Heliport",
        "count": 6,
        "lat": "35.398799896240234",
        "lon": "-77.94969940185547"
    },
    {
        "id": 22573,
        "name": "Natividad Medical Center Heliport",
        "count": 22,
        "lat": "36.69770050048828",
        "lon": "-121.6510009765625"
    },
    {
        "id": 90194,
        "name": "Stevens Memorial Hospital Heliport",
        "count": 93,
        "lat": "47.8036994934082",
        "lon": "-122.33399963378906"
    },
    {
        "id": 77649,
        "name": "Darr Field",
        "count": 5,
        "lat": "35.90850067138672",
        "lon": "-79.98729705810547"
    },
    {
        "id": 26825,
        "name": "St Joseph Medical Center Heliport",
        "count": 107,
        "lat": "41.07870101928711",
        "lon": "-85.14969635009766"
    },
    {
        "id": 67817,
        "name": "Wiley's Seaplane Base",
        "count": 28,
        "lat": "45.430999755859375",
        "lon": "-122.6500015258789"
    },
    {
        "id": 43635,
        "name": "Providence Hospital Heliport",
        "count": 129,
        "lat": "42.3386993408",
        "lon": "-122.861999512"
    },
    {
        "id": 48679,
        "name": "Manchester Laboratory Heliport",
        "count": 86,
        "lat": "47.57429885864258",
        "lon": "-122.5479965209961"
    },
    {
        "id": 26764,
        "name": "Bert's Airport",
        "count": 2,
        "lat": "40.28559875488281",
        "lon": "-75.74819946289062"
    },
    {
        "id": 30765,
        "name": "KTSP Heliport",
        "count": 371,
        "lat": "33.4487",
        "lon": "-112.081001"
    },
    {
        "id": 31294,
        "name": "Douglas County Hospital Heliport",
        "count": 16,
        "lat": "45.873600006103516",
        "lon": "-95.3772964477539"
    },
    {
        "id": 30372,
        "name": "Thorn Airport",
        "count": 5,
        "lat": "43.93000030517578",
        "lon": "-86.16560363769531"
    },
    {
        "id": 28545,
        "name": "Capital Center Heliport",
        "count": 9,
        "lat": "41.82899856567383",
        "lon": "-71.4136962890625"
    },
    {
        "id": 86319,
        "name": "Cherry Hill Inn Heliport",
        "count": 10,
        "lat": "39.93339920043945",
        "lon": "-75.03299713134766"
    },
    {
        "id": 82004,
        "name": "Lodi Airport",
        "count": 2,
        "lat": "42.972198486328125",
        "lon": "-96.9802017211914"
    },
    {
        "id": 71900,
        "name": "Siletz Airport",
        "count": 1,
        "lat": "44.73040008544922",
        "lon": "-123.91500091552734"
    },
    {
        "id": 52313,
        "name": "Ogden Hinckley Airport",
        "count": 26,
        "lat": "41.195899963379",
        "lon": "-112.0120010376"
    },
    {
        "id": 87832,
        "name": "Seaside Heliport",
        "count": 2,
        "lat": "45.84149932861328",
        "lon": "-123.927001953125"
    },
    {
        "id": 36556,
        "name": "Good Samaritan Hospital Heliport",
        "count": 84,
        "lat": "34.054901",
        "lon": "-118.264967"
    },
    {
        "id": 94923,
        "name": "New London Airport",
        "count": 1,
        "lat": "37.27180099487305",
        "lon": "-79.33589935302734"
    },
    {
        "id": 79923,
        "name": "Olympic Memorial Hospital Heliport",
        "count": 29,
        "lat": "48.11940002441406",
        "lon": "-123.4000015258789"
    },
    {
        "id": 76864,
        "name": "BBVA Bancomer Tower Helipad",
        "count": 8,
        "lat": "19.422852",
        "lon": "-99.174745"
    },
    {
        "id": 21986,
        "name": "Quebec/S\u00fbret\u00e9 Heliport",
        "count": 153,
        "lat": "46.834",
        "lon": "-71.2841"
    },
    {
        "id": 98978,
        "name": "Goering Ranches Airport",
        "count": 5,
        "lat": "44.0973014831543",
        "lon": "-120.9469985961914"
    },
    {
        "id": 67136,
        "name": "Flying 'O' Ranch Heliport",
        "count": 21,
        "lat": "47.36920166015625",
        "lon": "-122.06900024414062"
    },
    {
        "id": 39709,
        "name": "Chapin Field",
        "count": 4,
        "lat": "43.05009841918945",
        "lon": "-73.36620330810547"
    },
    {
        "id": 14723,
        "name": "Zangger Vintage Airpark",
        "count": 6,
        "lat": "43.4514007568",
        "lon": "-96.40589904790001"
    },
    {
        "id": 63974,
        "name": "Westmoreland Hospital Heliport",
        "count": 10,
        "lat": "40.30120086669922",
        "lon": "-79.5552978515625"
    },
    {
        "id": 23527,
        "name": "Quesnel Airport",
        "count": 5,
        "lat": "53.026100158691406",
        "lon": "-122.51000213623047"
    },
    {
        "id": 51532,
        "name": "San Joaquin Community Hospital Heliport",
        "count": 63,
        "lat": "35.38359832763672",
        "lon": "-119.0199966430664"
    },
    {
        "id": 36313,
        "name": "Charlton Memorial Hospital Heliport",
        "count": 9,
        "lat": "41.709800720214844",
        "lon": "-71.14610290527344"
    },
    {
        "id": 82577,
        "name": "Nrh Fire Department Heliport",
        "count": 3,
        "lat": "32.85919952392578",
        "lon": "-97.2300033569336"
    },
    {
        "id": 65615,
        "name": "Douglas Municipal Airport",
        "count": 3,
        "lat": "31.3425998688",
        "lon": "-109.505996704"
    },
    {
        "id": 60810,
        "name": "Eagles Landing Heliport",
        "count": 3,
        "lat": "35.92250061035156",
        "lon": "-83.57939910888672"
    },
    {
        "id": 50895,
        "name": "1st District Police Station Heliport",
        "count": 12,
        "lat": "41.44810104370117",
        "lon": "-81.77899932861328"
    },
    {
        "id": 32036,
        "name": "Hca New Port Richey Hospital Heliport",
        "count": 26,
        "lat": "28.235000610351562",
        "lon": "-82.71790313720703"
    },
    {
        "id": 19007,
        "name": "Woodland State Airport",
        "count": 11,
        "lat": "45.898799896240234",
        "lon": "-122.73699951171875"
    },
    {
        "id": 80287,
        "name": "Fall City Airport",
        "count": 16,
        "lat": "47.55950164794922",
        "lon": "-121.86399841308594"
    },
    {
        "id": 31882,
        "name": "Pangborn Memorial Airport",
        "count": 1,
        "lat": "47.3988990784",
        "lon": "-120.207000732"
    },
    {
        "id": 80788,
        "name": "St-J\u00e9r\u00f4me Airport",
        "count": 22,
        "lat": "45.78030014038086",
        "lon": "-74.06189727783203"
    },
    {
        "id": 25805,
        "name": "Winnipeg (City of Winnipeg) Heliport",
        "count": 103,
        "lat": "49.900473",
        "lon": "-97.095553"
    },
    {
        "id": 32701,
        "name": "Port Orchard Airport",
        "count": 2,
        "lat": "47.43230056762695",
        "lon": "-122.66799926757812"
    },
    {
        "id": 82359,
        "name": "St Joseph Hospital Heliport",
        "count": 221,
        "lat": "32.72850036621094",
        "lon": "-97.32450103759766"
    },
    {
        "id": 46659,
        "name": "Leo Creek Airport",
        "count": 1,
        "lat": "55.119853",
        "lon": "-125.614054"
    },
    {
        "id": 28343,
        "name": "Johnson Wax Heliport",
        "count": 16,
        "lat": "42.70840072631836",
        "lon": "-87.79170227050781"
    },
    {
        "id": 61937,
        "name": "St Francis Hospital Heliport",
        "count": 111,
        "lat": "41.77450180053711",
        "lon": "-72.6989974975586"
    },
    {
        "id": 86789,
        "name": "Vancouver (General Hospital) Heliport",
        "count": 67,
        "lat": "49.261946699",
        "lon": "-123.124410957"
    },
    {
        "id": 29606,
        "name": "Stark Heliport",
        "count": 15,
        "lat": "40.47999954223633",
        "lon": "-89.02169799804688"
    },
    {
        "id": 50185,
        "name": "Utah Valley Regional Medical Center Heliport",
        "count": 19,
        "lat": "40.24800109863281",
        "lon": "-111.66600036621094"
    },
    {
        "id": 72348,
        "name": "Shasta Regional Medical Center Heliport",
        "count": 50,
        "lat": "40.585116",
        "lon": "-122.387976"
    },
    {
        "id": 69378,
        "name": "Ocean Shores Municipal Airport",
        "count": 5,
        "lat": "47.003700256347656",
        "lon": "-124.14399719238281"
    },
    {
        "id": 43076,
        "name": "Pilot Butte Airport",
        "count": 31,
        "lat": "44.047298431396484",
        "lon": "-121.2760009765625"
    },
    {
        "id": 53062,
        "name": "Hintzman Private Airport",
        "count": 2,
        "lat": "46.65098",
        "lon": "-95.354874"
    },
    {
        "id": 54838,
        "name": "Lake Country Regional Airport",
        "count": 1,
        "lat": "36.5957984924",
        "lon": "-78.56009674070002"
    },
    {
        "id": 82688,
        "name": "Jackson County Reynolds Field",
        "count": 1,
        "lat": "42.259799957300004",
        "lon": "-84.45939636230001"
    },
    {
        "id": 96345,
        "name": "Central Washington Hospital Heliport",
        "count": 41,
        "lat": "47.406700134277344",
        "lon": "-120.31999969482422"
    },
    {
        "id": 15256,
        "name": "Yuma MCAS/Yuma International Airport",
        "count": 3,
        "lat": "32.65660095",
        "lon": "-114.6060028"
    },
    {
        "id": 59348,
        "name": "Cyber Density Balloon Spot Balloonport",
        "count": 8,
        "lat": "40.43439865112305",
        "lon": "-74.63469696044922"
    },
    {
        "id": 27454,
        "name": "Garberville Airport",
        "count": 3,
        "lat": "40.08599853515625",
        "lon": "-123.81400299072266"
    },
    {
        "id": 37513,
        "name": "Fredericton (Forestry Centre) Heliport",
        "count": 33,
        "lat": "45.93333435058594",
        "lon": "-66.66666412353516"
    },
    {
        "id": 60208,
        "name": "P W Johnson Memorial Airport",
        "count": 4,
        "lat": "39.683998107910156",
        "lon": "-80.86229705810547"
    },
    {
        "id": 72422,
        "name": "Cosmodyne Heliport",
        "count": 20,
        "lat": "33.84360122680664",
        "lon": "-118.33999633789062"
    },
    {
        "id": 94301,
        "name": "Jeannette Hospital Heliport",
        "count": 5,
        "lat": "40.3203010559082",
        "lon": "-79.61139678955078"
    },
    {
        "id": 99290,
        "name": "Little Chase Farm Airstrip",
        "count": 3,
        "lat": "52.357319",
        "lon": "-1.6209368"
    },
    {
        "id": 21606,
        "name": "St Mary's Regional Medical Center Heliport",
        "count": 109,
        "lat": "35.2836990356",
        "lon": "-93.1504974365"
    },
    {
        "id": 96283,
        "name": "Polson Airport",
        "count": 3,
        "lat": "47.69540023803711",
        "lon": "-114.18499755859375"
    },
    {
        "id": 92800,
        "name": "Flea Port Heliport",
        "count": 12,
        "lat": "37.373600006103516",
        "lon": "-121.87999725341797"
    },
    {
        "id": 79012,
        "name": "St Thomas Municipal Airport",
        "count": 7,
        "lat": "48.626399993896484",
        "lon": "-97.43920135498047"
    },
    {
        "id": 64276,
        "name": "Teco Plaza Heliport",
        "count": 91,
        "lat": "27.94969940185547",
        "lon": "-82.46009826660156"
    },
    {
        "id": 74893,
        "name": "Capitol Medical Center Heliport",
        "count": 52,
        "lat": "47.043399810791016",
        "lon": "-122.95099639892578"
    },
    {
        "id": 83508,
        "name": "BTA Heliport",
        "count": 14,
        "lat": "31.996799",
        "lon": "-102.081001"
    },
    {
        "id": 29253,
        "name": "Big Andy Airport",
        "count": 4,
        "lat": "48.0984001159668",
        "lon": "-123.64299774169922"
    },
    {
        "id": 38720,
        "name": "Decker Farms Airport",
        "count": 2,
        "lat": "39.70690155029297",
        "lon": "-103.35199737548828"
    },
    {
        "id": 96344,
        "name": "Wilson Heliport",
        "count": 66,
        "lat": "40.20009994506836",
        "lon": "-75.29959869384766"
    },
    {
        "id": 70743,
        "name": "North Bay Seaplane Base",
        "count": 4,
        "lat": "46.33110046386719",
        "lon": "-79.40139770507812"
    },
    {
        "id": 10552,
        "name": "Eden Field",
        "count": 1,
        "lat": "31.412700653076172",
        "lon": "-81.43730163574219"
    },
    {
        "id": 12561,
        "name": "Berkley Structures Heliport",
        "count": 45,
        "lat": "47.682043",
        "lon": "-122.148456"
    },
    {
        "id": 65633,
        "name": "Minden Webster Airport",
        "count": 1,
        "lat": "32.645999908447266",
        "lon": "-93.29810333251953"
    },
    {
        "id": 22715,
        "name": "Columbia River Park Hospital Heliport",
        "count": 5,
        "lat": "35.699108",
        "lon": "-85.742153"
    },
    {
        "id": 65821,
        "name": "Lake County Airport",
        "count": 1,
        "lat": "42.161098480199996",
        "lon": "-120.399002075"
    },
    {
        "id": 67745,
        "name": "The Boeing Company Heliport",
        "count": 13,
        "lat": "47.93119812011719",
        "lon": "-122.26499938964844"
    },
    {
        "id": 81264,
        "name": "Erch Heliport",
        "count": 3,
        "lat": "42.495601654052734",
        "lon": "-84.65859985351562"
    },
    {
        "id": 94328,
        "name": "Doctors Medical Center of Modesto Heliport",
        "count": 60,
        "lat": "37.6654",
        "lon": "-120.9975"
    },
    {
        "id": 42763,
        "name": "Winnemucca Municipal Airport",
        "count": 8,
        "lat": "40.8965988159",
        "lon": "-117.805999756"
    },
    {
        "id": 32123,
        "name": "St Mary's Hospital Elevated Heliport",
        "count": 5,
        "lat": "42.954200744628906",
        "lon": "-74.21540069580078"
    },
    {
        "id": 83876,
        "name": "Bandera State Airport",
        "count": 1,
        "lat": "47.39540100097656",
        "lon": "-121.53600311279297"
    },
    {
        "id": 75136,
        "name": "Gooding Municipal Airport",
        "count": 1,
        "lat": "42.91719818",
        "lon": "-114.7649994"
    },
    {
        "id": 14532,
        "name": "St. Joseph Hospital Heliport",
        "count": 47,
        "lat": "26.99090003967285",
        "lon": "-82.09510040283203"
    },
    {
        "id": 44485,
        "name": "Edmonton / Sturgeon Community Hospital Heliport",
        "count": 3,
        "lat": "53.654578",
        "lon": "-113.627361"
    },
    {
        "id": 16285,
        "name": "Seattle Tacoma International Airport",
        "count": 23,
        "lat": "47.44900131225586",
        "lon": "-122.30899810791016"
    },
    {
        "id": 11752,
        "name": "Rutger's Helistop Sec. A & B Heliport",
        "count": 1,
        "lat": "40.47930145263672",
        "lon": "-74.43460083007812"
    },
    {
        "id": 62105,
        "name": "Naples Community Hospital Heliport",
        "count": 36,
        "lat": "26.1515007019",
        "lon": "-81.79699707030001"
    },
    {
        "id": 52635,
        "name": "Engine Co Nr 108 Heliport",
        "count": 11,
        "lat": "34.12670135498047",
        "lon": "-118.40699768066406"
    },
    {
        "id": 54489,
        "name": "Secret Spot Airport",
        "count": 9,
        "lat": "44.61669921875",
        "lon": "-73.46530151367188"
    },
    {
        "id": 36745,
        "name": "Tetz Landing Heliport",
        "count": 3,
        "lat": "41.548667",
        "lon": "-74.469722"
    },
    {
        "id": 63395,
        "name": "Weyerhaeuser Heliport",
        "count": 35,
        "lat": "47.29819869995117",
        "lon": "-122.2979965209961"
    },
    {
        "id": 31965,
        "name": "Houghton County Memorial Airport",
        "count": 4,
        "lat": "47.168399810791016",
        "lon": "-88.48909759521484"
    },
    {
        "id": 13442,
        "name": "Barker Airport",
        "count": 14,
        "lat": "48.37480163574219",
        "lon": "-122.33899688720703"
    },
    {
        "id": 70682,
        "name": "Sunset Airport",
        "count": 21,
        "lat": "48.27230072",
        "lon": "-122.3570023"
    },
    {
        "id": 58596,
        "name": "Ohio Bldg Authority Heliport",
        "count": 96,
        "lat": "39.962600708",
        "lon": "-82.9993972778"
    },
    {
        "id": 85149,
        "name": "Opa-locka Executive Airport",
        "count": 5,
        "lat": "25.90699959",
        "lon": "-80.27839661"
    },
    {
        "id": 28113,
        "name": "LA State Police Troop D Heliport",
        "count": 20,
        "lat": "30.235500335699996",
        "lon": "-93.21269989010001"
    },
    {
        "id": 11729,
        "name": "Santa Ynez Airport",
        "count": 7,
        "lat": "34.60680008",
        "lon": "-120.0759964"
    },
    {
        "id": 50277,
        "name": "Cole Memorial Airport",
        "count": 2,
        "lat": "42.924198150634766",
        "lon": "-101.69400024414062"
    },
    {
        "id": 15578,
        "name": "Northwest Helicopters Heliport",
        "count": 11,
        "lat": "46.97480010986328",
        "lon": "-122.9000015258789"
    },
    {
        "id": 86416,
        "name": "Roubin & Janeiro Inc Heliport",
        "count": 15,
        "lat": "38.8734016418457",
        "lon": "-77.25420379638672"
    },
    {
        "id": 17587,
        "name": "Riverside Hospital Heliport",
        "count": 44,
        "lat": "41.66310119628906",
        "lon": "-83.51519775390625"
    },
    {
        "id": 50851,
        "name": "Lake Wenatchee State Airport",
        "count": 3,
        "lat": "47.819400787353516",
        "lon": "-120.72000122070312"
    },
    {
        "id": 34022,
        "name": "Tillar Airport",
        "count": 2,
        "lat": "33.71260070800781",
        "lon": "-91.46119689941406"
    },
    {
        "id": 85501,
        "name": "Sloulin Field International Airport",
        "count": 7,
        "lat": "48.177898407",
        "lon": "-103.641998291"
    },
    {
        "id": 54454,
        "name": "Firstair Field",
        "count": 24,
        "lat": "47.87139892578125",
        "lon": "-121.99500274658203"
    },
    {
        "id": 44207,
        "name": "Beaverton Corporate Center Heliport",
        "count": 55,
        "lat": "45.49509811401367",
        "lon": "-122.8270034790039"
    },
    {
        "id": 69222,
        "name": "Pete's Airport",
        "count": 2,
        "lat": "47.84159851074219",
        "lon": "-117.4469985961914"
    },
    {
        "id": 40053,
        "name": "Miami Herald Heliport",
        "count": 157,
        "lat": "25.78820037841797",
        "lon": "-80.185302734375"
    },
    {
        "id": 34846,
        "name": "Huntington Emergency Helistop",
        "count": 14,
        "lat": "40.88399887084961",
        "lon": "-73.42289733886719"
    },
    {
        "id": 90414,
        "name": "Auburn Fire Department Heliport",
        "count": 47,
        "lat": "47.31869888305664",
        "lon": "-122.21900177001953"
    },
    {
        "id": 58766,
        "name": "Midway Lake Airport",
        "count": 11,
        "lat": "28.04199981689453",
        "lon": "-82.09230041503906"
    },
    {
        "id": 46827,
        "name": "Arlington Municipal Airport",
        "count": 34,
        "lat": "45.71649932861328",
        "lon": "-120.16799926757812"
    },
    {
        "id": 35493,
        "name": "Tillamook County General Hospital Heliport",
        "count": 11,
        "lat": "45.45539855957031",
        "lon": "-123.85399627685547"
    },
    {
        "id": 89520,
        "name": "World Trade Center Heliport",
        "count": 252,
        "lat": "45.5171012878418",
        "lon": "-122.67400360107422"
    },
    {
        "id": 78480,
        "name": "Community Medical Center Heliport",
        "count": 30,
        "lat": "46.86989974975586",
        "lon": "-113.99099731445312"
    },
    {
        "id": 57179,
        "name": "Mc Kenzie Regional Hospital Heliport",
        "count": 3,
        "lat": "36.1333999634",
        "lon": "-88.48560333250002"
    },
    {
        "id": 39297,
        "name": "Carson-Tahoe Hospital Heliport",
        "count": 5,
        "lat": "39.17129898071289",
        "lon": "-119.77200317382812"
    },
    {
        "id": 52270,
        "name": "West 30th St. Heliport",
        "count": 62,
        "lat": "40.754501",
        "lon": "-74.007103"
    },
    {
        "id": 41210,
        "name": "Mount Pleasant Airport",
        "count": 5,
        "lat": "46.5999984741",
        "lon": "-64"
    },
    {
        "id": 33754,
        "name": "Alachua General Hospital Heliport",
        "count": 34,
        "lat": "29.649099",
        "lon": "-82.334503"
    },
    {
        "id": 91482,
        "name": "Spanaway Airport",
        "count": 11,
        "lat": "47.08689880371094",
        "lon": "-122.43099975585938"
    },
    {
        "id": 50909,
        "name": "Honeywell Heliport",
        "count": 5,
        "lat": "40.837083",
        "lon": "-74.476694"
    },
    {
        "id": 26073,
        "name": "Douglastown Airport",
        "count": 7,
        "lat": "47.03333282470703",
        "lon": "-65.53333282470703"
    },
    {
        "id": 36979,
        "name": "Overlake Hospital EMS Heliport",
        "count": 62,
        "lat": "47.621667",
        "lon": "-122.187778"
    },
    {
        "id": 44478,
        "name": "Avery Field",
        "count": 1,
        "lat": "45.671199798583984",
        "lon": "-69.80680084228516"
    },
    {
        "id": 21578,
        "name": "Meriter/Park Heliport",
        "count": 46,
        "lat": "43.06560134887695",
        "lon": "-89.40180206298828"
    },
    {
        "id": 38678,
        "name": "St Vincent Hospital Heliport",
        "count": 42,
        "lat": "45.510101318359375",
        "lon": "-122.77300262451172"
    },
    {
        "id": 55457,
        "name": "Roesler Timber Company Heliport",
        "count": 42,
        "lat": "47.86819839477539",
        "lon": "-121.75299835205078"
    },
    {
        "id": 74078,
        "name": "Vaughan Ranch Airfield",
        "count": 1,
        "lat": "47.46369934082031",
        "lon": "-122.56900024414062"
    },
    {
        "id": 50324,
        "name": "Franwood Farms Inc. Airport",
        "count": 1,
        "lat": "38.69089889526367",
        "lon": "-78.62950134277344"
    },
    {
        "id": 89226,
        "name": "Santa Barbara Municipal Airport",
        "count": 15,
        "lat": "34.42620087",
        "lon": "-119.8399963"
    },
    {
        "id": 70645,
        "name": "Tucumcari Municipal Airport",
        "count": 3,
        "lat": "35.182800293",
        "lon": "-103.602996826"
    },
    {
        "id": 62023,
        "name": "Tva Heliport",
        "count": 18,
        "lat": "36.3083992004",
        "lon": "-82.3832015991"
    },
    {
        "id": 55112,
        "name": "Capen Airport",
        "count": 2,
        "lat": "43.62419891357422",
        "lon": "-85.31780242919922"
    },
    {
        "id": 42074,
        "name": "Rusk County Memorial Heliport",
        "count": 1,
        "lat": "45.45439910888672",
        "lon": "-91.11009979248047"
    },
    {
        "id": 58221,
        "name": "Viroqua Municipal Airport",
        "count": 4,
        "lat": "43.57939910888672",
        "lon": "-90.91310119628906"
    },
    {
        "id": 56656,
        "name": "Victoria Harbour (Camel Point) Heliport",
        "count": 27,
        "lat": "48.41809844970703",
        "lon": "-123.38800048828125"
    },
    {
        "id": 83173,
        "name": "Wolf Lake Airport",
        "count": 2,
        "lat": "42.20970153808594",
        "lon": "-84.23169708251953"
    },
    {
        "id": 64266,
        "name": "Raleigh Enterprises Heliport",
        "count": 11,
        "lat": "34.03609848022461",
        "lon": "-118.44200134277344"
    },
    {
        "id": 57113,
        "name": "Flying T Ranch Airport",
        "count": 5,
        "lat": "33.37839889526367",
        "lon": "-96.44830322265625"
    },
    {
        "id": 44558,
        "name": "Hazel Hawkins Memorial Hospital Heliport",
        "count": 17,
        "lat": "36.834811",
        "lon": "-121.386479"
    },
    {
        "id": 72797,
        "name": "Mendocino Coast District Hospital Heliport",
        "count": 3,
        "lat": "39.43199920654297",
        "lon": "-123.80000305175781"
    },
    {
        "id": 83194,
        "name": "Roy Otten Memorial Airfield",
        "count": 6,
        "lat": "38.427799224854",
        "lon": "-92.875198364258"
    },
    {
        "id": 51310,
        "name": "Kuakini Medical Center Heliport",
        "count": 52,
        "lat": "21.313499450683594",
        "lon": "-157.8470001220703"
    },
    {
        "id": 37182,
        "name": "Morton Plant Hospital Heliport",
        "count": 22,
        "lat": "27.953399658203125",
        "lon": "-82.8042984008789"
    },
    {
        "id": 83573,
        "name": "Tri Cities Airport",
        "count": 24,
        "lat": "42.078499",
        "lon": "-76.096296"
    },
    {
        "id": 41912,
        "name": "Bronson Methodist Hospital Heliport",
        "count": 25,
        "lat": "42.2869987487793",
        "lon": "-85.5813980102539"
    },
    {
        "id": 32416,
        "name": "Papago Army Heliport",
        "count": 84,
        "lat": "33.4720001221",
        "lon": "-111.963996887"
    },
    {
        "id": 33178,
        "name": "Whiteman Air Force Base",
        "count": 2,
        "lat": "38.73030090332",
        "lon": "-93.547897338867"
    },
    {
        "id": 15755,
        "name": "Maidens Airport",
        "count": 3,
        "lat": "42.7333984375",
        "lon": "-84.32360076904297"
    },
    {
        "id": 21774,
        "name": "Hoskins Field",
        "count": 13,
        "lat": "46.99259948730469",
        "lon": "-122.8280029296875"
    },
    {
        "id": 65465,
        "name": "Grants Pass Airport",
        "count": 3,
        "lat": "42.510101",
        "lon": "-123.388"
    },
    {
        "id": 31737,
        "name": "Mc Call Memorial Hospital Heliport",
        "count": 4,
        "lat": "44.9090995789",
        "lon": "-116.11000061"
    },
    {
        "id": 43423,
        "name": "American Stores Heliport",
        "count": 88,
        "lat": "40.763301849365234",
        "lon": "-111.88999938964844"
    },
    {
        "id": 59290,
        "name": "Osf Family Medical Center Heliport",
        "count": 2,
        "lat": "40.921699523899996",
        "lon": "-90.6554031372"
    },
    {
        "id": 31169,
        "name": "Albuquerque Regional Medical Center Heliport",
        "count": 141,
        "lat": "35.08940124511719",
        "lon": "-106.63600158691406"
    },
    {
        "id": 44063,
        "name": "Swiss Medical Heliport",
        "count": 4,
        "lat": "-34.5808",
        "lon": "-58.4294"
    },
    {
        "id": 28597,
        "name": "Bowman Field",
        "count": 7,
        "lat": "40.33509826660156",
        "lon": "-83.13600158691406"
    },
    {
        "id": 87883,
        "name": "E L Gruber Heliport",
        "count": 12,
        "lat": "40.2333984375",
        "lon": "-75.64409637451172"
    },
    {
        "id": 55451,
        "name": "Mcgraw's Backyard Airport",
        "count": 1,
        "lat": "35.67060089111328",
        "lon": "-84.11579895019531"
    },
    {
        "id": 44695,
        "name": "Torchport Airport",
        "count": 4,
        "lat": "45.05580139160156",
        "lon": "-85.35590362548828"
    },
    {
        "id": 51520,
        "name": "St Francis Medical Center Heliport",
        "count": 29,
        "lat": "40.46649932861328",
        "lon": "-79.95279693603516"
    },
    {
        "id": 71521,
        "name": "Scher Heliport",
        "count": 5,
        "lat": "41.65230178833008",
        "lon": "-74.6968002319336"
    },
    {
        "id": 27945,
        "name": "Idaho County Airport",
        "count": 4,
        "lat": "45.9426",
        "lon": "-116.123001"
    },
    {
        "id": 57040,
        "name": "Rogers Helicopters Inc Heliport",
        "count": 25,
        "lat": "36.82379913330078",
        "lon": "-119.66799926757812"
    },
    {
        "id": 25756,
        "name": "At&T Heliport",
        "count": 4,
        "lat": "40.668701171875",
        "lon": "-74.410697937012"
    },
    {
        "id": 56052,
        "name": "Hall Airport",
        "count": 4,
        "lat": "40.11669921875",
        "lon": "-92.26689910888672"
    },
    {
        "id": 73621,
        "name": "Burtch Airport",
        "count": 37,
        "lat": "43.0531475098",
        "lon": "-80.2761554718"
    },
    {
        "id": 49726,
        "name": "Kadlec Medical Center Heliport",
        "count": 16,
        "lat": "46.2823757981",
        "lon": "-119.280474186"
    },
    {
        "id": 67823,
        "name": "Travis Air Force Base",
        "count": 2,
        "lat": "38.262699127197",
        "lon": "-121.92700195312"
    },
    {
        "id": 63831,
        "name": "One Ten Heliport",
        "count": 5,
        "lat": "40.74209976",
        "lon": "-73.4213028"
    },
    {
        "id": 25549,
        "name": "Jack Mc Namara Field Airport",
        "count": 14,
        "lat": "41.78020096",
        "lon": "-124.2369995"
    },
    {
        "id": 66042,
        "name": "Mirth Airport",
        "count": 4,
        "lat": "47.9385986328125",
        "lon": "-122.60800170898438"
    },
    {
        "id": 80559,
        "name": "Johnson County Airport",
        "count": 7,
        "lat": "36.41780090332031",
        "lon": "-81.82510375976562"
    },
    {
        "id": 65453,
        "name": "Eisenhower Medical Center Heliport",
        "count": 30,
        "lat": "33.7641",
        "lon": "-116.4049"
    },
    {
        "id": 44090,
        "name": "Marcos A. Gelabert International Airport",
        "count": 8,
        "lat": "8.973340034484863",
        "lon": "-79.55560302734375"
    },
    {
        "id": 25730,
        "name": "Jewish Hospital Heliport",
        "count": 90,
        "lat": "38.25199890136719",
        "lon": "-85.75050354003906"
    },
    {
        "id": 92636,
        "name": "Adair County Memorial Hospital Heliport",
        "count": 2,
        "lat": "41.30400085449219",
        "lon": "-94.45099639892578"
    },
    {
        "id": 83567,
        "name": "Fairmont Municipal-Frankman Field",
        "count": 2,
        "lat": "39.44820022583008",
        "lon": "-80.16699981689453"
    },
    {
        "id": 75558,
        "name": "Lakewood Heliport",
        "count": 1,
        "lat": "48.15380096435547",
        "lon": "-122.23400115966797"
    },
    {
        "id": 34311,
        "name": "State Capital Parking Lot Heliport",
        "count": 78,
        "lat": "33.7484016418457",
        "lon": "-84.38739776611328"
    },
    {
        "id": 95428,
        "name": "Us Property & Fiscal Office Heliport",
        "count": 9,
        "lat": "42.28340148925781",
        "lon": "-71.36620330810547"
    },
    {
        "id": 63529,
        "name": "Ibm Customer Executive Education Center Heliport",
        "count": 16,
        "lat": "41.018699645996094",
        "lon": "-73.9176025390625"
    },
    {
        "id": 81797,
        "name": "Maple Airport",
        "count": 11,
        "lat": "43.843356522899995",
        "lon": "-79.5260703564"
    },
    {
        "id": 11491,
        "name": "Sandpoint Airport",
        "count": 16,
        "lat": "48.299499511719",
        "lon": "-116.55999755859"
    },
    {
        "id": 31152,
        "name": "Graves Field Heliport",
        "count": 5,
        "lat": "47.658056",
        "lon": "-122.298333"
    },
    {
        "id": 63139,
        "name": "Cedarville Airport",
        "count": 3,
        "lat": "41.55270004272461",
        "lon": "-120.16600036621094"
    },
    {
        "id": 90836,
        "name": "Hennepin County Medical Center Heliport",
        "count": 73,
        "lat": "44.972055",
        "lon": "-93.262605"
    },
    {
        "id": 68803,
        "name": "Kitchens Field",
        "count": 1,
        "lat": "33.13460159301758",
        "lon": "-84.25409698486328"
    },
    {
        "id": 38293,
        "name": "East Tennessee Children's Hospital Heliport",
        "count": 49,
        "lat": "35.956199645996094",
        "lon": "-83.93820190429688"
    },
    {
        "id": 95420,
        "name": "Holiday Inn Westport Heliport",
        "count": 3,
        "lat": "38.69390106201172",
        "lon": "-90.44869995117188"
    },
    {
        "id": 60301,
        "name": "Hospital Heliport",
        "count": 18,
        "lat": "28.6294002532959",
        "lon": "-80.8219985961914"
    },
    {
        "id": 40994,
        "name": "Port of Poulsbo Marina Moorage Seaplane Base",
        "count": 10,
        "lat": "47.734001159668",
        "lon": "-122.64700317383"
    },
    {
        "id": 69555,
        "name": "Flow Through Terminal Heliport",
        "count": 37,
        "lat": "43.04949951171875",
        "lon": "-83.67970275878906"
    },
    {
        "id": 83942,
        "name": "Dugger Field",
        "count": 1,
        "lat": "30.496400833129883",
        "lon": "-86.09380340576172"
    },
    {
        "id": 55082,
        "name": "Oceana NAS",
        "count": 64,
        "lat": "36.8207016",
        "lon": "-76.03350067"
    },
    {
        "id": 34787,
        "name": "Whidbey Air Park",
        "count": 17,
        "lat": "48.01750183105469",
        "lon": "-122.43800354003906"
    },
    {
        "id": 51192,
        "name": "Pittsfield Municipal Airport",
        "count": 9,
        "lat": "44.76850128173828",
        "lon": "-69.37439727783203"
    },
    {
        "id": 83956,
        "name": "Marten Hills Airport",
        "count": 1,
        "lat": "55.424720764160156",
        "lon": "-113.6080551147461"
    },
    {
        "id": 63879,
        "name": "Liard River Airport",
        "count": 1,
        "lat": "59.516666412353516",
        "lon": "-126.36666870117188"
    },
    {
        "id": 16165,
        "name": "Munson Medical Center Heliport",
        "count": 17,
        "lat": "44.76060104370117",
        "lon": "-85.64399719238281"
    },
    {
        "id": 58875,
        "name": "Manju Heliport",
        "count": 2,
        "lat": "42.72740173339844",
        "lon": "-85.7155990600586"
    },
    {
        "id": 87940,
        "name": "Brawley Municipal Airport",
        "count": 5,
        "lat": "32.99290085",
        "lon": "-115.5169983"
    },
    {
        "id": 94656,
        "name": "Helistop Ridc Industrial Park Heliport",
        "count": 2,
        "lat": "40.49919891357422",
        "lon": "-79.86530303955078"
    },
    {
        "id": 26499,
        "name": "Webster Field",
        "count": 3,
        "lat": "43.67509841918945",
        "lon": "-70.49559783935547"
    },
    {
        "id": 24934,
        "name": "Lafayette Airstrip",
        "count": 2,
        "lat": "45.244300842285156",
        "lon": "-123.12899780273438"
    },
    {
        "id": 94097,
        "name": "Nut Tree Airport",
        "count": 14,
        "lat": "38.376800537109375",
        "lon": "-121.96199798583984"
    },
    {
        "id": 39509,
        "name": "Shelby Airport",
        "count": 2,
        "lat": "48.5406990051",
        "lon": "-111.871002197"
    },
    {
        "id": 28709,
        "name": "Kent Benaroya Heliport",
        "count": 44,
        "lat": "47.41450119018555",
        "lon": "-122.2300033569336"
    },
    {
        "id": 88991,
        "name": "Mission Seaplane Base",
        "count": 63,
        "lat": "49.13330078125",
        "lon": "-122.30000305175781"
    },
    {
        "id": 46815,
        "name": "Aubrey Mountain Airstrip",
        "count": 2,
        "lat": "43.740699768066406",
        "lon": "-122.4260025024414"
    },
    {
        "id": 24941,
        "name": "Detroit Metropolitan Wayne County Airport",
        "count": 7,
        "lat": "42.212398529052734",
        "lon": "-83.35340118408203"
    },
    {
        "id": 26439,
        "name": "Pioneer Valley Hospital Heliport",
        "count": 6,
        "lat": "40.69990158081055",
        "lon": "-111.98999786376953"
    },
    {
        "id": 96436,
        "name": "Pacemaker Landing Zone Airport",
        "count": 4,
        "lat": "47.02170181274414",
        "lon": "-122.44599914550781"
    },
    {
        "id": 14493,
        "name": "Tempe St. Luke's Hospital Heliport",
        "count": 53,
        "lat": "33.41279983520508",
        "lon": "-111.94000244140625"
    },
    {
        "id": 64026,
        "name": "Edwards Air Force Base",
        "count": 6,
        "lat": "34.905399",
        "lon": "-117.884003"
    },
    {
        "id": 30076,
        "name": "S & S Ranch Airport",
        "count": 5,
        "lat": "43.48469924926758",
        "lon": "-90.61990356445312"
    },
    {
        "id": 85845,
        "name": "Jim & Julie's Airport",
        "count": 2,
        "lat": "47.898101806640625",
        "lon": "-122.15599822998047"
    },
    {
        "id": 95465,
        "name": "Fullerton Municipal Airport",
        "count": 27,
        "lat": "33.8720016479",
        "lon": "-117.980003357"
    },
    {
        "id": 18748,
        "name": "Da Nang International Airport",
        "count": 5,
        "lat": "16.043899536132812",
        "lon": "108.1989974975586"
    },
    {
        "id": 84583,
        "name": "La Mesa Park Airport",
        "count": 4,
        "lat": "36.856998443603516",
        "lon": "-104.447998046875"
    },
    {
        "id": 29035,
        "name": "Columbia Regional Airport",
        "count": 15,
        "lat": "38.81809997558594",
        "lon": "-92.21959686279297"
    },
    {
        "id": 75008,
        "name": "CFB Greenwood",
        "count": 14,
        "lat": "44.98440170288086",
        "lon": "-64.91690063476562"
    },
    {
        "id": 87952,
        "name": "Amch Heliport",
        "count": 42,
        "lat": "42.65169906616211",
        "lon": "-73.7748031616211"
    },
    {
        "id": 79600,
        "name": "Presence Holy Family Medical Center Heliport",
        "count": 16,
        "lat": "42.054945",
        "lon": "-87.891348"
    },
    {
        "id": 13849,
        "name": "County Poor Farm Airport",
        "count": 3,
        "lat": "41.990299224853516",
        "lon": "-89.33149719238281"
    },
    {
        "id": 91392,
        "name": "Capitol National Bank Building Heliport",
        "count": 160,
        "lat": "30.271041666699997",
        "lon": "-97.7446975708"
    },
    {
        "id": 45174,
        "name": "Salem Hospital Heliport",
        "count": 70,
        "lat": "44.93349838",
        "lon": "-123.0350037"
    },
    {
        "id": 28580,
        "name": "Chestnut Street Garage Heliport",
        "count": 35,
        "lat": "40.258399963378906",
        "lon": "-76.87969970703125"
    },
    {
        "id": 32111,
        "name": "Parker Field",
        "count": 11,
        "lat": "34.9364013671875",
        "lon": "-77.27670288085938"
    },
    {
        "id": 43528,
        "name": "House Movers Field",
        "count": 3,
        "lat": "33.85100173950195",
        "lon": "-81.54840087890625"
    },
    {
        "id": 38171,
        "name": "Augusta State Airport",
        "count": 7,
        "lat": "44.320598602299995",
        "lon": "-69.7973022461"
    },
    {
        "id": 85219,
        "name": "Columbus Metropolitan Airport",
        "count": 9,
        "lat": "32.516300201416016",
        "lon": "-84.93890380859375"
    },
    {
        "id": 41462,
        "name": "Dwight Eisenhower Va Medical Center Heliport",
        "count": 5,
        "lat": "39.282798767089844",
        "lon": "-94.88800048828125"
    },
    {
        "id": 22673,
        "name": "Kikity",
        "count": 4,
        "lat": "53.983056",
        "lon": "20.877222"
    },
    {
        "id": 24714,
        "name": "Thorp Airport",
        "count": 1,
        "lat": "32.57789993286133",
        "lon": "-101.93099975585938"
    },
    {
        "id": 93411,
        "name": "St Francis M C Helistop",
        "count": 9,
        "lat": "40.21839904785156",
        "lon": "-74.73880004882812"
    },
    {
        "id": 79651,
        "name": "Addison Airport",
        "count": 6,
        "lat": "32.9686012268",
        "lon": "-96.8364028931"
    },
    {
        "id": 70530,
        "name": "Nikkila Farms Airport",
        "count": 2,
        "lat": "46.702701568603516",
        "lon": "-88.99739837646484"
    },
    {
        "id": 22829,
        "name": "Lethbridge / Anderson Field",
        "count": 1,
        "lat": "49.6569444445",
        "lon": "-112.772777778"
    },
    {
        "id": 45207,
        "name": "Joseph Ross Scherdin Airport",
        "count": 5,
        "lat": "29.081100463867188",
        "lon": "-95.38269805908203"
    },
    {
        "id": 51505,
        "name": "Israel's Farm Airport",
        "count": 21,
        "lat": "48.507598876953125",
        "lon": "-122.09200286865234"
    },
    {
        "id": 39346,
        "name": "Oceano County Airport",
        "count": 15,
        "lat": "35.10139846801758",
        "lon": "-120.62200164794922"
    },
    {
        "id": 40805,
        "name": "Jefferson Hospital Heliport",
        "count": 4,
        "lat": "40.318187007700004",
        "lon": "-79.934034586"
    },
    {
        "id": 39505,
        "name": "Compaq Woburn Heliport",
        "count": 27,
        "lat": "42.50979995727539",
        "lon": "-71.13639831542969"
    },
    {
        "id": 97103,
        "name": "Payson Airport",
        "count": 14,
        "lat": "34.256801605225",
        "lon": "-111.33899688721"
    },
    {
        "id": 50939,
        "name": "NBC 6 (WTVJ) Heliport",
        "count": 4,
        "lat": "25.986400604248047",
        "lon": "-80.35389709472656"
    },
    {
        "id": 62620,
        "name": "Ross Complex Heliport",
        "count": 1,
        "lat": "45.6682014465332",
        "lon": "-122.64399719238281"
    },
    {
        "id": 57265,
        "name": "Krueger Airport",
        "count": 5,
        "lat": "45.442100524902344",
        "lon": "-122.322998046875"
    },
    {
        "id": 32231,
        "name": "St John's Medical Center Heliport",
        "count": 11,
        "lat": "46.13029861450195",
        "lon": "-122.94100189208984"
    },
    {
        "id": 39252,
        "name": "Schlenker Airport",
        "count": 50,
        "lat": "49.96670150756836",
        "lon": "-110.71700286865234"
    },
    {
        "id": 61543,
        "name": "Collins Landing Strip",
        "count": 1,
        "lat": "44.7499008179",
        "lon": "-120.200996399"
    },
    {
        "id": 99310,
        "name": "Donnelly's Airport",
        "count": 4,
        "lat": "42.769500732421875",
        "lon": "-78.5469970703125"
    },
    {
        "id": 48368,
        "name": "At&T Helistop",
        "count": 6,
        "lat": "40.716800689697266",
        "lon": "-74.54959869384766"
    },
    {
        "id": 55935,
        "name": "Sacred Heart General Hospital Heliport",
        "count": 65,
        "lat": "44.04710006713867",
        "lon": "-123.07599639892578"
    },
    {
        "id": 48298,
        "name": "Dietz Airpark",
        "count": 8,
        "lat": "45.255699157714844",
        "lon": "-122.6510009765625"
    },
    {
        "id": 76517,
        "name": "Dekalb Regional Medical Center Heliport",
        "count": 3,
        "lat": "34.442141",
        "lon": "-85.755793"
    },
    {
        "id": 99579,
        "name": "Westport Heliport",
        "count": 5,
        "lat": "42.85490036010742",
        "lon": "-71.47370147705078"
    },
    {
        "id": 88177,
        "name": "UC Davis Medical Center Tower II Heliport",
        "count": 131,
        "lat": "38.554831",
        "lon": "-121.455491"
    },
    {
        "id": 41751,
        "name": "Wakonda Beach State Airport",
        "count": 4,
        "lat": "44.38460159301758",
        "lon": "-124.08499908447266"
    },
    {
        "id": 14722,
        "name": "Superior Municipal Airport",
        "count": 4,
        "lat": "33.277801513671875",
        "lon": "-111.12699890136719"
    },
    {
        "id": 51081,
        "name": "Civic Center Heliport",
        "count": 44,
        "lat": "33.677799224853516",
        "lon": "-118"
    },
    {
        "id": 51804,
        "name": "Soverel Park Heliport",
        "count": 9,
        "lat": "40.782901763916016",
        "lon": "-74.21820068359375"
    },
    {
        "id": 31013,
        "name": "East Kansas City Airport",
        "count": 2,
        "lat": "39.01559829711914",
        "lon": "-94.21330261230469"
    },
    {
        "id": 10062,
        "name": "Lake West Wind Airport",
        "count": 4,
        "lat": "38.970001220703125",
        "lon": "-90.24720001220703"
    },
    {
        "id": 46260,
        "name": "Abilene Municipal Airport",
        "count": 6,
        "lat": "38.904098510742",
        "lon": "-97.235900878906"
    },
    {
        "id": 11947,
        "name": "Santa Barbara Cottage Hospital Heliport",
        "count": 2,
        "lat": "34.43",
        "lon": "-119.724166"
    },
    {
        "id": 59536,
        "name": "Brussels/Van Keulen Field",
        "count": 2,
        "lat": "43.7833",
        "lon": "-81.195802"
    },
    {
        "id": 25788,
        "name": "Florence Municipal Airport",
        "count": 10,
        "lat": "43.98279953",
        "lon": "-124.111000061"
    },
    {
        "id": 92621,
        "name": "Coulee Community Hospital Heliport",
        "count": 6,
        "lat": "47.945701599121094",
        "lon": "-119.0009994506836"
    },
    {
        "id": 57894,
        "name": "Carlson Airport",
        "count": 17,
        "lat": "44.72359848022461",
        "lon": "-91.45989990234375"
    },
    {
        "id": 12964,
        "name": "Simsbury Airport",
        "count": 7,
        "lat": "41.91680145263672",
        "lon": "-72.77729797363281"
    },
    {
        "id": 64551,
        "name": "Buckingham Airport",
        "count": 1,
        "lat": "45.63333511352539",
        "lon": "-75.4000015258789"
    },
    {
        "id": 87722,
        "name": "Park 90 Heliport",
        "count": 12,
        "lat": "47.58449935913086",
        "lon": "-122.32599639892578"
    },
    {
        "id": 68255,
        "name": "Textron/Everett Heliport",
        "count": 12,
        "lat": "42.40449905395508",
        "lon": "-71.07060241699219"
    },
    {
        "id": 91975,
        "name": "Chesapeake General Hospital Heliport",
        "count": 13,
        "lat": "36.741798400878906",
        "lon": "-76.24410247802734"
    },
    {
        "id": 21803,
        "name": "Apple Valley Airport",
        "count": 10,
        "lat": "34.575298309299995",
        "lon": "-117.185997009"
    },
    {
        "id": 48884,
        "name": "Snoqualmie Valley Hospital Emergency Room Heliport",
        "count": 14,
        "lat": "47.51470184326172",
        "lon": "-121.8280029296875"
    },
    {
        "id": 71628,
        "name": "Seymour Johnson Air Force Base",
        "count": 1,
        "lat": "35.33940125",
        "lon": "-77.96060181"
    },
    {
        "id": 35520,
        "name": "Vermilion Health Centre Heliport",
        "count": 45,
        "lat": "53.35580062866211",
        "lon": "-110.87200164794922"
    },
    {
        "id": 60498,
        "name": "Cleburne Municipal Airport",
        "count": 10,
        "lat": "32.353802",
        "lon": "-97.433701"
    },
    {
        "id": 28490,
        "name": "Anderson Hospital Heliport",
        "count": 19,
        "lat": "38.73699951171875",
        "lon": "-89.9468002319336"
    },
    {
        "id": 20044,
        "name": "Columbus Air Force Base",
        "count": 1,
        "lat": "33.6437988281",
        "lon": "-88.44380187990001"
    },
    {
        "id": 20656,
        "name": "Timpanogos Regional Hospital Heliport",
        "count": 17,
        "lat": "40.31290054321289",
        "lon": "-111.71399688720703"
    },
    {
        "id": 94685,
        "name": "San Antonio Regional Hospital Heliport",
        "count": 34,
        "lat": "34.102747",
        "lon": "-117.636211"
    },
    {
        "id": 72961,
        "name": "Massachusetts General Hospital Heliport",
        "count": 54,
        "lat": "42.36370086669922",
        "lon": "-71.06890106201172"
    },
    {
        "id": 81880,
        "name": "Bonham Airport",
        "count": 5,
        "lat": "33.5432014465332",
        "lon": "-86.98580169677734"
    },
    {
        "id": 19929,
        "name": "Luke Air Force Base",
        "count": 46,
        "lat": "33.534999847399995",
        "lon": "-112.383003235"
    },
    {
        "id": 91031,
        "name": "Tweed New Haven Airport",
        "count": 14,
        "lat": "41.26369858",
        "lon": "-72.88680267"
    },
    {
        "id": 47404,
        "name": "Hollis Clark Bay Seaplane Base",
        "count": 1,
        "lat": "55.4816017151",
        "lon": "-132.645996094"
    },
    {
        "id": 25099,
        "name": "Eagle Field",
        "count": 17,
        "lat": "40.82699966430664",
        "lon": "-77.98809814453125"
    },
    {
        "id": 59552,
        "name": "Baptist Memorial Hospital Union County Heliport",
        "count": 2,
        "lat": "34.4975",
        "lon": "-89.026389"
    },
    {
        "id": 30238,
        "name": "Sibley Medical Center Heliport",
        "count": 2,
        "lat": "44.611156",
        "lon": "-94.084722"
    },
    {
        "id": 92389,
        "name": "Pinehurst State Airport",
        "count": 2,
        "lat": "42.110198974609375",
        "lon": "-122.38300323486328"
    },
    {
        "id": 98966,
        "name": "Crossings Heliport",
        "count": 3,
        "lat": "47.26169967651367",
        "lon": "-122.43599700927734"
    },
    {
        "id": 95335,
        "name": "Old Acton Airfield",
        "count": 2,
        "lat": "43.53730010986328",
        "lon": "-70.92939758300781"
    },
    {
        "id": 96922,
        "name": "Strong Memorial Hospital Heliport",
        "count": 61,
        "lat": "43.12229919433594",
        "lon": "-77.622802734375"
    },
    {
        "id": 35282,
        "name": "Presence Mercy Medical Center Heliport",
        "count": 13,
        "lat": "41.785811",
        "lon": "-88.324533"
    },
    {
        "id": 91874,
        "name": "US Coast Guard Station Neah Bay Heliport",
        "count": 1,
        "lat": "48.3704528",
        "lon": "-124.5981194"
    },
    {
        "id": 85665,
        "name": "Gustavus Airport",
        "count": 1,
        "lat": "58.4253006",
        "lon": "-135.7070007"
    },
    {
        "id": 74959,
        "name": "Alturas Municipal Airport",
        "count": 8,
        "lat": "41.48300171",
        "lon": "-120.5650024"
    },
    {
        "id": 57607,
        "name": "Medical College of Virginia Heliport",
        "count": 56,
        "lat": "37.54169845581055",
        "lon": "-77.44170379638672"
    },
    {
        "id": 97411,
        "name": "Cedar Air Park",
        "count": 24,
        "lat": "38.931400299072266",
        "lon": "-94.88500213623047"
    },
    {
        "id": 72863,
        "name": "Vancouver / Coquitlam Fire and Rescue Heliport",
        "count": 29,
        "lat": "49.2916156136",
        "lon": "-122.792148292"
    },
    {
        "id": 26641,
        "name": "New York Skyports Inc Seaplane Base",
        "count": 143,
        "lat": "40.734001",
        "lon": "-73.9729"
    },
    {
        "id": 75533,
        "name": "Dangel Airport",
        "count": 8,
        "lat": "43.33330154418945",
        "lon": "-97.06279754638672"
    },
    {
        "id": 21330,
        "name": "Liberal Mid-America Regional Airport",
        "count": 4,
        "lat": "37.0442009",
        "lon": "-100.9599991"
    },
    {
        "id": 91560,
        "name": "Lake Havasu City Airport",
        "count": 15,
        "lat": "34.571098",
        "lon": "-114.358002"
    },
    {
        "id": 20095,
        "name": "Whitestone Airport",
        "count": 8,
        "lat": "48.7227777778",
        "lon": "-119.467222222"
    },
    {
        "id": 44932,
        "name": "Everett I Heliport",
        "count": 7,
        "lat": "47.5833015442",
        "lon": "-122.167999268"
    },
    {
        "id": 30190,
        "name": "Shilo Farms Airport",
        "count": 1,
        "lat": "30.930999755859375",
        "lon": "-83.38349914550781"
    },
    {
        "id": 93353,
        "name": "Blosser Municipal Airport",
        "count": 1,
        "lat": "39.549301147499996",
        "lon": "-97.6522979736"
    },
    {
        "id": 32288,
        "name": "Salida Hospital Heliport",
        "count": 8,
        "lat": "38.532798767089844",
        "lon": "-105.98999786376953"
    },
    {
        "id": 78004,
        "name": "San Fernando Airport",
        "count": 8,
        "lat": "14.113332748413086",
        "lon": "-86.9527816772461"
    },
    {
        "id": 63460,
        "name": "Wa Airport",
        "count": 1,
        "lat": "10.0826997756958",
        "lon": "-2.507689952850342"
    },
    {
        "id": 21666,
        "name": "Stanford University Hospital Center Heliport",
        "count": 22,
        "lat": "37.43550109863281",
        "lon": "-122.17500305175781"
    },
    {
        "id": 81571,
        "name": "Telephone Utilities/Tiw/ Heliport",
        "count": 22,
        "lat": "47.331199645996094",
        "lon": "-122.60199737548828"
    },
    {
        "id": 82073,
        "name": "Anaheim Police Heliport",
        "count": 36,
        "lat": "33.8264007568",
        "lon": "-117.901000977"
    },
    {
        "id": 79609,
        "name": "New Smyrna Beach Municipal Airport",
        "count": 9,
        "lat": "29.055700302124023",
        "lon": "-80.94889831542969"
    },
    {
        "id": 31204,
        "name": "University Medical Center Hospital Heliport",
        "count": 193,
        "lat": "32.24250030517578",
        "lon": "-110.94599914550781"
    },
    {
        "id": 11967,
        "name": "Rampart Heliport",
        "count": 8,
        "lat": "39.344239",
        "lon": "-104.841906"
    },
    {
        "id": 89772,
        "name": "Personal 500 Sales Co. Heliport",
        "count": 11,
        "lat": "47.20370101928711",
        "lon": "-122.2239990234375"
    },
    {
        "id": 19275,
        "name": "Alabama Power Headquarters Heliport",
        "count": 40,
        "lat": "33.51959991455078",
        "lon": "-86.8135986328125"
    },
    {
        "id": 11201,
        "name": "Massillon Community Hospital Heliport",
        "count": 9,
        "lat": "40.80580139160156",
        "lon": "-81.5156021118164"
    },
    {
        "id": 88562,
        "name": "Des Moines General Hospital Heliport",
        "count": 43,
        "lat": "41.594200134277344",
        "lon": "-93.60079956054688"
    },
    {
        "id": 52867,
        "name": "Bucker Field",
        "count": 13,
        "lat": "33.443199157714844",
        "lon": "-97.27339935302734"
    },
    {
        "id": 67190,
        "name": "Costa Mesa Police Department Heliport",
        "count": 20,
        "lat": "33.66310119628906",
        "lon": "-117.90399932861328"
    },
    {
        "id": 59028,
        "name": "Brown Boy Airport",
        "count": 1,
        "lat": "46.8848991394043",
        "lon": "-119.89099884033203"
    },
    {
        "id": 56712,
        "name": "Memphis International Airport",
        "count": 1,
        "lat": "35.04240036010742",
        "lon": "-89.97669982910156"
    },
    {
        "id": 37839,
        "name": "Williston Armory Heliport",
        "count": 2,
        "lat": "44.438899993896484",
        "lon": "-73.07730102539062"
    },
    {
        "id": 88695,
        "name": "Scappoose Industrial Airpark",
        "count": 8,
        "lat": "45.770999908447266",
        "lon": "-122.86199951171875"
    },
    {
        "id": 91163,
        "name": "Buchanan Field",
        "count": 29,
        "lat": "37.9897003174",
        "lon": "-122.056999207"
    },
    {
        "id": 43622,
        "name": "Tuality Hospital Heliport",
        "count": 20,
        "lat": "45.52790069580078",
        "lon": "-122.9800033569336"
    },
    {
        "id": 85765,
        "name": "Tusquitee Heliport",
        "count": 6,
        "lat": "35.07929992675781",
        "lon": "-84.02490234375"
    },
    {
        "id": 74707,
        "name": "Cabell Huntington Hospital Heliport",
        "count": 24,
        "lat": "38.410301208496094",
        "lon": "-82.42829895019531"
    },
    {
        "id": 89212,
        "name": "Ingersoll Airport",
        "count": 1,
        "lat": "40.5690994263",
        "lon": "-90.074798584"
    },
    {
        "id": 45391,
        "name": "Survival Flight Heliport",
        "count": 23,
        "lat": "42.28390121459961",
        "lon": "-83.72799682617188"
    },
    {
        "id": 59388,
        "name": "Trollman's Field",
        "count": 1,
        "lat": "42.739200592041016",
        "lon": "-83.75499725341797"
    },
    {
        "id": 83209,
        "name": "67 Madison Ave Partnership Ltd Heliport",
        "count": 63,
        "lat": "35.137298583984375",
        "lon": "-90.0542984008789"
    },
    {
        "id": 71708,
        "name": "El Monte Airport",
        "count": 27,
        "lat": "34.086101532",
        "lon": "-118.035003662"
    },
    {
        "id": 30170,
        "name": "Flying R Airport",
        "count": 6,
        "lat": "41.2538528",
        "lon": "-111.7110611"
    },
    {
        "id": 46686,
        "name": "Monterey Peninsula Airport",
        "count": 8,
        "lat": "36.58700180053711",
        "lon": "-121.84300231933594"
    },
    {
        "id": 97122,
        "name": "Global Development Facility Heliport",
        "count": 16,
        "lat": "41.34170150756836",
        "lon": "-72.09349822998047"
    },
    {
        "id": 25531,
        "name": "Usa Medical Center Heliport",
        "count": 22,
        "lat": "30.711599349975586",
        "lon": "-88.10780334472656"
    },
    {
        "id": 28981,
        "name": "Sierra Medical Center Heliport",
        "count": 68,
        "lat": "31.77790069580078",
        "lon": "-106.47899627685547"
    },
    {
        "id": 93261,
        "name": "St Elizabeth's Hospital Heliport",
        "count": 10,
        "lat": "38.5099983215332",
        "lon": "-89.98889923095703"
    },
    {
        "id": 57091,
        "name": "Hansen Airport",
        "count": 2,
        "lat": "34.630001068115234",
        "lon": "-117.65299987792969"
    },
    {
        "id": 47013,
        "name": "Show Low Regional Airport",
        "count": 11,
        "lat": "34.265499115",
        "lon": "-110.005996704"
    },
    {
        "id": 52719,
        "name": "St Peter's Community Hospital Heliport",
        "count": 10,
        "lat": "46.58470153808594",
        "lon": "-111.99700164794922"
    },
    {
        "id": 50229,
        "name": "Juniper Hills Airport",
        "count": 1,
        "lat": "42.1242981",
        "lon": "-121.4580002"
    },
    {
        "id": 37680,
        "name": "Presence United Samaritans Medical Center Heliport",
        "count": 3,
        "lat": "40.138908",
        "lon": "-87.645336"
    },
    {
        "id": 39389,
        "name": "Central Dupage Hospital Heliport",
        "count": 17,
        "lat": "41.8745002746582",
        "lon": "-88.15650177001953"
    },
    {
        "id": 90361,
        "name": "Aurora Presbyterian Hospital Heliport",
        "count": 43,
        "lat": "39.72639846801758",
        "lon": "-104.8270034790039"
    },
    {
        "id": 79773,
        "name": "City Hall Heliport",
        "count": 295,
        "lat": "34.054199",
        "lon": "-118.242995"
    },
    {
        "id": 41832,
        "name": "Chinle Airport",
        "count": 2,
        "lat": "36.15420150756836",
        "lon": "-109.5510025024414"
    },
    {
        "id": 53671,
        "name": "Northern Nevada Medical Center Heliport",
        "count": 3,
        "lat": "39.50550079345703",
        "lon": "-119.69300079345703"
    },
    {
        "id": 25981,
        "name": "Evart Municipal Airport",
        "count": 4,
        "lat": "43.89590072631836",
        "lon": "-85.2791976928711"
    },
    {
        "id": 76523,
        "name": "Shawnee Regional Airport",
        "count": 5,
        "lat": "35.357898712158",
        "lon": "-96.942802429199"
    },
    {
        "id": 42969,
        "name": "Tampa General Hospital Brandon Healthplex Heliport",
        "count": 6,
        "lat": "27.929372",
        "lon": "-82.336981"
    },
    {
        "id": 31438,
        "name": "Mitchell's Airport",
        "count": 18,
        "lat": "33.30179977416992",
        "lon": "-89.81430053710938"
    },
    {
        "id": 21422,
        "name": "Orange Co Sheriffs Forensics Lab Helistop",
        "count": 30,
        "lat": "33.7475013733",
        "lon": "-117.876998901"
    },
    {
        "id": 22711,
        "name": "Tew Mac Heliport",
        "count": 10,
        "lat": "42.5975",
        "lon": "-71.205"
    },
    {
        "id": 55727,
        "name": "Pir Heliport",
        "count": 1,
        "lat": "40.72679901123047",
        "lon": "-75.31990051269531"
    },
    {
        "id": 81026,
        "name": "Central District Police Station Heliport",
        "count": 9,
        "lat": "25.853200912475586",
        "lon": "-80.24700164794922"
    },
    {
        "id": 73773,
        "name": "Stovepipe Wells Airport",
        "count": 1,
        "lat": "36.60409927368164",
        "lon": "-117.15899658203125"
    },
    {
        "id": 53835,
        "name": "University of Kentucky Hospital Heliport",
        "count": 34,
        "lat": "38.030586",
        "lon": "-84.508214"
    },
    {
        "id": 17681,
        "name": "Covenant Medical Center Heliport",
        "count": 12,
        "lat": "40.11309814453125",
        "lon": "-88.23419952392578"
    },
    {
        "id": 21177,
        "name": "Antonio Nery Juarbe Pol Airport",
        "count": 2,
        "lat": "18.4500007629",
        "lon": "-66.6753005981"
    },
    {
        "id": 71147,
        "name": "Temple University Heliport",
        "count": 1,
        "lat": "40.004798889160156",
        "lon": "-75.14959716796875"
    },
    {
        "id": 83086,
        "name": "Wilson Memorial Regional Medical Center Heliport",
        "count": 28,
        "lat": "42.113399505615234",
        "lon": "-75.95850372314453"
    },
    {
        "id": 43139,
        "name": "San Diego Police Headquarters Heliport",
        "count": 280,
        "lat": "32.715301513671875",
        "lon": "-117.1510009765625"
    },
    {
        "id": 51341,
        "name": "Hastings Airport",
        "count": 5,
        "lat": "8.397130012512207",
        "lon": "-13.12909984588623"
    },
    {
        "id": 30718,
        "name": "Janes Heliport",
        "count": 31,
        "lat": "48.04199981689453",
        "lon": "-122.22599792480469"
    },
    {
        "id": 86063,
        "name": "Burlington Generating Station Heliport",
        "count": 8,
        "lat": "40.073699951171875",
        "lon": "-74.87460327148438"
    },
    {
        "id": 83994,
        "name": "Rockwell City Municipal Airport",
        "count": 8,
        "lat": "42.38750076293945",
        "lon": "-94.61799621582031"
    },
    {
        "id": 61176,
        "name": "Hackley Hospital Emergency Heliport",
        "count": 17,
        "lat": "43.220298767089844",
        "lon": "-86.24230194091797"
    },
    {
        "id": 67872,
        "name": "Touchet Valley Airport",
        "count": 1,
        "lat": "46.28919982910156",
        "lon": "-118.10099792480469"
    },
    {
        "id": 49948,
        "name": "Lebanon Municipal Airport",
        "count": 10,
        "lat": "43.626098632799994",
        "lon": "-72.30419921880001"
    },
    {
        "id": 56520,
        "name": "Shannon Medical Center Heliport",
        "count": 12,
        "lat": "31.45989990234375",
        "lon": "-100.43800354003906"
    },
    {
        "id": 28867,
        "name": "Turkey Creek Lake Airport",
        "count": 2,
        "lat": "31.90679931640625",
        "lon": "-91.7593002319336"
    },
    {
        "id": 28568,
        "name": "Eirmc Heliport",
        "count": 2,
        "lat": "43.47100067138672",
        "lon": "-111.99199676513672"
    },
    {
        "id": 58030,
        "name": "Spirit of St Louis Airport",
        "count": 4,
        "lat": "38.662101745605",
        "lon": "-90.652000427246"
    },
    {
        "id": 54959,
        "name": "Jackson-Madison County General Hospital Heliport",
        "count": 18,
        "lat": "35.63560104370117",
        "lon": "-88.83200073242188"
    },
    {
        "id": 31529,
        "name": "Mattison's Seaplane Base",
        "count": 7,
        "lat": "45.28179931640625",
        "lon": "-92.96659851074219"
    },
    {
        "id": 82553,
        "name": "Mercy Hospital of Folsom Heliport",
        "count": 19,
        "lat": "38.670861",
        "lon": "-121.142839"
    },
    {
        "id": 78218,
        "name": "Napa County Airport",
        "count": 21,
        "lat": "38.2132",
        "lon": "-122.280998"
    },
    {
        "id": 40825,
        "name": "I-90/Bellevue Busi Pk Boeing Comp Svcs Hdq Heliport",
        "count": 1,
        "lat": "47.584564209",
        "lon": "-122.129577637"
    },
    {
        "id": 95913,
        "name": "Gravelly Valley Airport",
        "count": 2,
        "lat": "39.44990158081055",
        "lon": "-122.95500183105469"
    },
    {
        "id": 64368,
        "name": "Los Angeles County Sheriff's Department Heliport",
        "count": 3,
        "lat": "34.03779983520508",
        "lon": "-118.15399932861328"
    },
    {
        "id": 44367,
        "name": "Erasmus Medisch Centrum Heliport",
        "count": 43,
        "lat": "51.90999984741211",
        "lon": "4.470832824707031"
    },
    {
        "id": 17389,
        "name": "Skyline Airstrip",
        "count": 2,
        "lat": "40.506500244140625",
        "lon": "-75.94329833984375"
    },
    {
        "id": 73920,
        "name": "Glover Airport",
        "count": 2,
        "lat": "36.528099060058594",
        "lon": "-77.45469665527344"
    },
    {
        "id": 88567,
        "name": "Calvin Campbell Municipal Airport",
        "count": 3,
        "lat": "45.40829849243164",
        "lon": "-84.5999984741211"
    },
    {
        "id": 59269,
        "name": "Mimbres Memorial Hospital Heliport",
        "count": 14,
        "lat": "32.259247",
        "lon": "-107.767511"
    },
    {
        "id": 34024,
        "name": "Cloquet Carlton County Airport",
        "count": 3,
        "lat": "46.70109939575195",
        "lon": "-92.50360107421875"
    },
    {
        "id": 27646,
        "name": "Placerville Airport",
        "count": 16,
        "lat": "38.724201202393",
        "lon": "-120.75299835205"
    },
    {
        "id": 60113,
        "name": "St Mary-Corwin Hospital Heliport",
        "count": 23,
        "lat": "38.23360061645508",
        "lon": "-104.62300109863281"
    },
    {
        "id": 60608,
        "name": "Devil's Reach Landing Airport",
        "count": 2,
        "lat": "38.20940017700195",
        "lon": "-77.00060272216797"
    },
    {
        "id": 27770,
        "name": "Arrowhead Regional Medical Center Heliport",
        "count": 4,
        "lat": "34.075801849365234",
        "lon": "-117.3489990234375"
    },
    {
        "id": 54823,
        "name": "Ko\u0142obrzeg-Bagicz",
        "count": 1,
        "lat": "54.2007217407",
        "lon": "15.686944007900001"
    },
    {
        "id": 86307,
        "name": "Eliza Coffee Memorial Hospital Heliport",
        "count": 7,
        "lat": "34.79399871826172",
        "lon": "-87.68340301513672"
    },
    {
        "id": 86016,
        "name": "Oroville Hospital Heliport",
        "count": 10,
        "lat": "39.50743",
        "lon": "-121.541572"
    },
    {
        "id": 98103,
        "name": "Community Hospital Heliport",
        "count": 19,
        "lat": "40.13090133666992",
        "lon": "-85.69580078125"
    },
    {
        "id": 72040,
        "name": "Trento-Mattarello Airport",
        "count": 5,
        "lat": "46.0214",
        "lon": "11.1242"
    },
    {
        "id": 40732,
        "name": "Providence Medical Plaza Heliport",
        "count": 59,
        "lat": "46.59640121459961",
        "lon": "-120.52100372314453"
    },
    {
        "id": 22033,
        "name": "Rice Ranch Airport",
        "count": 1,
        "lat": "47.998199462890625",
        "lon": "-119.08899688720703"
    },
    {
        "id": 79319,
        "name": "Kimray Airport",
        "count": 12,
        "lat": "39.56669998168945",
        "lon": "-94.41470336914062"
    },
    {
        "id": 91233,
        "name": "Davis Hospital & Medical Center Heliport",
        "count": 10,
        "lat": "41.05830001831055",
        "lon": "-111.97200012207031"
    },
    {
        "id": 37570,
        "name": "Lacrosse Municipal Airport",
        "count": 1,
        "lat": "46.79100036621094",
        "lon": "-117.9209976196289"
    },
    {
        "id": 78364,
        "name": "Samaritan Pacific Communities Hospital Heliport",
        "count": 11,
        "lat": "44.6296005249",
        "lon": "-124.059997559"
    },
    {
        "id": 75722,
        "name": "Boulder Community Hospital Heliport",
        "count": 48,
        "lat": "40.027801513671875",
        "lon": "-105.28399658203125"
    },
    {
        "id": 81295,
        "name": "Sarasota Memorial Hospital Heliport",
        "count": 44,
        "lat": "27.317800521850586",
        "lon": "-82.52980041503906"
    },
    {
        "id": 29043,
        "name": "Private Sealanes-Jamaica Bay Seaplane Base",
        "count": 125,
        "lat": "40.60530090332031",
        "lon": "-73.90229797363281"
    },
    {
        "id": 64546,
        "name": "Mc David Honda Heliport",
        "count": 13,
        "lat": "32.8375015259",
        "lon": "-96.9708023071"
    },
    {
        "id": 26489,
        "name": "Arkansas Children's Hospital Heliport",
        "count": 44,
        "lat": "34.742698669433594",
        "lon": "-92.293701171875"
    },
    {
        "id": 25647,
        "name": "Mears Field Airport",
        "count": 3,
        "lat": "48.529800415",
        "lon": "-121.758003235"
    },
    {
        "id": 44949,
        "name": "Calgary (City / Bow River) Heliport",
        "count": 10,
        "lat": "51.052834289699994",
        "lon": "-114.078843445"
    },
    {
        "id": 37845,
        "name": "West Valley Medical Center Heliport",
        "count": 15,
        "lat": "33.46080017089844",
        "lon": "-112.35199737548828"
    },
    {
        "id": 53133,
        "name": "Wilkes-Barre General Hosptial Heliport",
        "count": 21,
        "lat": "41.2593994140625",
        "lon": "-75.86689758300781"
    },
    {
        "id": 13138,
        "name": "Gilbert Development Corp Heliport",
        "count": 16,
        "lat": "37.172778",
        "lon": "-113.434444"
    },
    {
        "id": 13912,
        "name": "Vey Sheep Ranch Airport",
        "count": 2,
        "lat": "45.09320068359375",
        "lon": "-118.39900207519531"
    },
    {
        "id": 21882,
        "name": "Thomas Memorial Airport",
        "count": 2,
        "lat": "42.51890182495117",
        "lon": "-105.01899719238281"
    },
    {
        "id": 27707,
        "name": "Leisureland Airpark",
        "count": 9,
        "lat": "47.60749816894531",
        "lon": "-122.77400207519531"
    },
    {
        "id": 69274,
        "name": "Scott AFB/Midamerica Airport",
        "count": 2,
        "lat": "38.5452",
        "lon": "-89.835197"
    },
    {
        "id": 80301,
        "name": "Keesler Air Force Base",
        "count": 11,
        "lat": "30.4104003906",
        "lon": "-88.92440032959999"
    },
    {
        "id": 93376,
        "name": "Sky Lakes Medical Center Heliport",
        "count": 12,
        "lat": "42.25400161739999",
        "lon": "-121.783996582"
    },
    {
        "id": 98167,
        "name": "Ronan Airport",
        "count": 2,
        "lat": "47.56719970703125",
        "lon": "-114.10099792480469"
    },
    {
        "id": 95490,
        "name": "Minn D O T Heliport",
        "count": 1,
        "lat": "44.072200775146484",
        "lon": "-92.50569915771484"
    },
    {
        "id": 68530,
        "name": "Acme Heliport",
        "count": 20,
        "lat": "42.47200012207031",
        "lon": "-83.01100158691406"
    },
    {
        "id": 38703,
        "name": "Madigan Hospital Heliport",
        "count": 10,
        "lat": "47.10649871826172",
        "lon": "-122.55000305175781"
    },
    {
        "id": 24924,
        "name": "Shady Cove Airpark",
        "count": 1,
        "lat": "42.60820007324219",
        "lon": "-122.82599639892578"
    },
    {
        "id": 81718,
        "name": "Mount Hood Medical Center Heliport",
        "count": 27,
        "lat": "45.515936687",
        "lon": "-122.406449318"
    },
    {
        "id": 42180,
        "name": "Malmstrom Air Force Base",
        "count": 2,
        "lat": "47.504699707",
        "lon": "-111.18699646"
    },
    {
        "id": 42346,
        "name": "King Copters Heliport",
        "count": 4,
        "lat": "46.307638",
        "lon": "-114.111527"
    },
    {
        "id": 54995,
        "name": "Tivat Airport",
        "count": 3,
        "lat": "42.404701232910156",
        "lon": "18.72330093383789"
    },
    {
        "id": 26917,
        "name": "Corona Regional Medical Center Heliport",
        "count": 6,
        "lat": "33.87310028076172",
        "lon": "-117.56800079345703"
    },
    {
        "id": 58025,
        "name": "Tiger Field",
        "count": 3,
        "lat": "39.559600830078125",
        "lon": "-119.24099731445312"
    },
    {
        "id": 38672,
        "name": "Jennie Edmundson Hospital Heliport",
        "count": 12,
        "lat": "41.26919937133789",
        "lon": "-95.83529663085938"
    },
    {
        "id": 17791,
        "name": "Winnabow Airport",
        "count": 2,
        "lat": "34.152099609375",
        "lon": "-78.10549926757812"
    },
    {
        "id": 65884,
        "name": "Skydive Oregon Airport",
        "count": 9,
        "lat": "45.14619827270508",
        "lon": "-122.61799621582031"
    },
    {
        "id": 34347,
        "name": "Tallahassee Memorial Hospital Heliport",
        "count": 35,
        "lat": "30.457399368286133",
        "lon": "-84.26100158691406"
    },
    {
        "id": 10293,
        "name": "Whitefish Airport",
        "count": 12,
        "lat": "48.40800094604492",
        "lon": "-114.30000305175781"
    },
    {
        "id": 39653,
        "name": "Burke Lakefront Airport",
        "count": 57,
        "lat": "41.51750183105469",
        "lon": "-81.68329620361328"
    },
    {
        "id": 32407,
        "name": "Lehman Airport",
        "count": 3,
        "lat": "34.085899353027344",
        "lon": "-99.4551010131836"
    },
    {
        "id": 57042,
        "name": "Troy Airport",
        "count": 3,
        "lat": "48.480201721191406",
        "lon": "-115.90399932861328"
    },
    {
        "id": 93689,
        "name": "\u00cele Sainte-H\u00e9l\u00e8ne Water Airport",
        "count": 65,
        "lat": "45.5212",
        "lon": "-73.5394"
    },
    {
        "id": 33771,
        "name": "Richardson Regional Heliport - Campbell Road",
        "count": 14,
        "lat": "32.975133",
        "lon": "-96.7260694"
    },
    {
        "id": 97045,
        "name": "St Anthony Heliport",
        "count": 58,
        "lat": "35.479000091552734",
        "lon": "-97.5177993774414"
    },
    {
        "id": 10920,
        "name": "Custer Main Heliport",
        "count": 1,
        "lat": "42.33169937133789",
        "lon": "-85.29669952392578"
    },
    {
        "id": 32189,
        "name": "Alta View Hospital Heliport",
        "count": 24,
        "lat": "40.57780075073242",
        "lon": "-111.85399627685547"
    },
    {
        "id": 46613,
        "name": "Madlienas lidlauks",
        "count": 1,
        "lat": "56.791602",
        "lon": "25.1237505"
    },
    {
        "id": 53042,
        "name": "Syferfontein Airport",
        "count": 4,
        "lat": "-26.349199295043945",
        "lon": "27.779399871826172"
    },
    {
        "id": 50907,
        "name": "Good Samaritan Heliport",
        "count": 11,
        "lat": "40.70750045776367",
        "lon": "-99.08149719238281"
    },
    {
        "id": 23632,
        "name": "Columbia Helicopters Heliport",
        "count": 9,
        "lat": "45.25859832763672",
        "lon": "-122.76499938964844"
    },
    {
        "id": 18334,
        "name": "Chitwood Airstrip",
        "count": 1,
        "lat": "47.709702",
        "lon": "-103.643997"
    },
    {
        "id": 78901,
        "name": "Dimascio Field",
        "count": 3,
        "lat": "40.29090118408203",
        "lon": "-75.65910339355469"
    },
    {
        "id": 65973,
        "name": "Tennessee Army & Air National Guard Heliport",
        "count": 11,
        "lat": "36.10169982910156",
        "lon": "-86.75830078125"
    },
    {
        "id": 29837,
        "name": "Gull Lake Airport",
        "count": 9,
        "lat": "50.05780029296875",
        "lon": "-108.48999786376953"
    },
    {
        "id": 89437,
        "name": "Gossard Field",
        "count": 1,
        "lat": "47.11520004272461",
        "lon": "-117.5739974975586"
    },
    {
        "id": 13226,
        "name": "Cascade Locks State Airport",
        "count": 3,
        "lat": "45.6768989563",
        "lon": "-121.878997803"
    },
    {
        "id": 21627,
        "name": "Evans Heliport",
        "count": 2,
        "lat": "47.630401611328125",
        "lon": "-122.1760025024414"
    },
    {
        "id": 46785,
        "name": "Walter A Swalley Airpark",
        "count": 9,
        "lat": "37.016700744628906",
        "lon": "-94.80020141601562"
    },
    {
        "id": 16117,
        "name": "Anchorage Lofts Hotel Heliport",
        "count": 42,
        "lat": "61.2189056",
        "lon": "-149.8864806"
    },
    {
        "id": 76410,
        "name": "Dallas City Hall Heliport",
        "count": 113,
        "lat": "32.77510070800781",
        "lon": "-96.79669952392578"
    },
    {
        "id": 12616,
        "name": "Baltimore Police Department Heliport",
        "count": 78,
        "lat": "39.290401458740234",
        "lon": "-76.60749816894531"
    },
    {
        "id": 33081,
        "name": "Mojave Airport",
        "count": 15,
        "lat": "35.05939865",
        "lon": "-118.1520004"
    },
    {
        "id": 42412,
        "name": "St. Croix Airport",
        "count": 6,
        "lat": "45.130651",
        "lon": "-67.304735"
    },
    {
        "id": 47952,
        "name": "Fabick-Colmarile Heliport",
        "count": 19,
        "lat": "38.525001525878906",
        "lon": "-90.45390319824219"
    },
    {
        "id": 60553,
        "name": "Bothwell Regional Health Center Heliport",
        "count": 5,
        "lat": "38.69860076904297",
        "lon": "-93.22239685058594"
    },
    {
        "id": 14126,
        "name": "Sequoia Ranch Airport",
        "count": 5,
        "lat": "36.149898529052734",
        "lon": "-118.802001953125"
    },
    {
        "id": 94186,
        "name": "Harris Field",
        "count": 7,
        "lat": "43.23559952",
        "lon": "-93.20829773"
    },
    {
        "id": 71424,
        "name": "St Francis Regional Medical Center Heliport",
        "count": 57,
        "lat": "37.70000076293945",
        "lon": "-97.33280181884766"
    },
    {
        "id": 30129,
        "name": "Idaho Falls Regional Airport",
        "count": 20,
        "lat": "43.514599",
        "lon": "-112.070999"
    },
    {
        "id": 44806,
        "name": "Pembroke Farm Airport",
        "count": 6,
        "lat": "39.719398498535156",
        "lon": "-76.2083969116211"
    },
    {
        "id": 54814,
        "name": "Montreal / Kruger Heliport",
        "count": 65,
        "lat": "45.507349751199996",
        "lon": "-73.6360439658"
    },
    {
        "id": 55705,
        "name": "Smokey's Heliport",
        "count": 29,
        "lat": "29.23080062866211",
        "lon": "-81.0280990600586"
    },
    {
        "id": 81632,
        "name": "Pink Hill Airport",
        "count": 1,
        "lat": "35.05070114135742",
        "lon": "-77.73609924316406"
    },
    {
        "id": 32337,
        "name": "Reading Hospital Heliport",
        "count": 27,
        "lat": "40.33060073852539",
        "lon": "-75.95020294189453"
    },
    {
        "id": 82776,
        "name": "Reoh1 Heliport",
        "count": 14,
        "lat": "48.038700103759766",
        "lon": "-122.06099700927734"
    },
    {
        "id": 52853,
        "name": "Picatinny Army Heliport",
        "count": 12,
        "lat": "40.957801818847656",
        "lon": "-74.5281982421875"
    },
    {
        "id": 93267,
        "name": "Davis Family Furniture Heliport",
        "count": 11,
        "lat": "40.310298919677734",
        "lon": "-79.65499877929688"
    },
    {
        "id": 38005,
        "name": "Waukesha Memorial Hospital Heliport",
        "count": 10,
        "lat": "43.01100158691406",
        "lon": "-88.2427978515625"
    },
    {
        "id": 23878,
        "name": "Sumter Airport",
        "count": 7,
        "lat": "33.994998931885",
        "lon": "-80.361297607422"
    },
    {
        "id": 15976,
        "name": "Bmcg Heliport",
        "count": 17,
        "lat": "32.920101165771484",
        "lon": "-96.6613998413086"
    },
    {
        "id": 25355,
        "name": "Lester E. Cox Medical Center North Heliport",
        "count": 49,
        "lat": "37.22529983520508",
        "lon": "-93.29070281982422"
    },
    {
        "id": 28876,
        "name": "John Muir Mt. Diablo Medical Center Heliport",
        "count": 29,
        "lat": "37.9241",
        "lon": "-121.7337"
    },
    {
        "id": 78770,
        "name": "Richards-Gebaur Air Force Base",
        "count": 6,
        "lat": "38.844200134277344",
        "lon": "-94.55999755859375"
    },
    {
        "id": 11606,
        "name": "Drv Downtown Houston Aquarium Heliport",
        "count": 245,
        "lat": "29.759199142456055",
        "lon": "-95.36750030517578"
    },
    {
        "id": 35398,
        "name": "Southwest Washington Regional Airport",
        "count": 16,
        "lat": "46.11800003049999",
        "lon": "-122.898002625"
    },
    {
        "id": 76786,
        "name": "The Ranch Airport",
        "count": 2,
        "lat": "42.827301025390625",
        "lon": "-74.40399932861328"
    },
    {
        "id": 48280,
        "name": "Grove City Medical Ctr Heliport",
        "count": 7,
        "lat": "41.171447",
        "lon": "-80.084222"
    },
    {
        "id": 40459,
        "name": "Lee Memorial Hospital Emergency Heliport",
        "count": 26,
        "lat": "26.641700744628906",
        "lon": "-81.86730194091797"
    },
    {
        "id": 89656,
        "name": "Broward County Civic Arena Heliport",
        "count": 9,
        "lat": "26.159400939941406",
        "lon": "-80.32559967041016"
    },
    {
        "id": 75893,
        "name": "North Port Ems Heliport",
        "count": 11,
        "lat": "27.046100616455078",
        "lon": "-82.23629760742188"
    },
    {
        "id": 27651,
        "name": "The Royal London Hospital Helipad",
        "count": 199,
        "lat": "51.517868",
        "lon": "-0.058343"
    },
    {
        "id": 29108,
        "name": "Cashmere-Dryden Airport",
        "count": 6,
        "lat": "47.51470184326172",
        "lon": "-120.48500061035156"
    },
    {
        "id": 19129,
        "name": "Bishop International Airport",
        "count": 13,
        "lat": "42.96540069580078",
        "lon": "-83.74359893798828"
    },
    {
        "id": 62123,
        "name": "Alexander's-Roosevelt Heliport",
        "count": 3,
        "lat": "40.7333984375",
        "lon": "-75.62460327148438"
    },
    {
        "id": 18663,
        "name": "Grace's Landing Airport",
        "count": 2,
        "lat": "42.33810043334961",
        "lon": "-74.7490005493164"
    },
    {
        "id": 35604,
        "name": "Seavair's Landing Seaplane Base",
        "count": 9,
        "lat": "41.895999908447266",
        "lon": "-73.09310150146484"
    },
    {
        "id": 60037,
        "name": "Red Roof Inns Heliport",
        "count": 6,
        "lat": "40.05009841918945",
        "lon": "-83.1270980834961"
    },
    {
        "id": 61357,
        "name": "Newhalem Office Heliport",
        "count": 2,
        "lat": "48.67190170288086",
        "lon": "-121.25199890136719"
    },
    {
        "id": 37374,
        "name": "Kalispell Regional Hospital Heliport",
        "count": 18,
        "lat": "48.21329879760742",
        "lon": "-114.3239974975586"
    },
    {
        "id": 70860,
        "name": "Zinck Airport",
        "count": 67,
        "lat": "44.523056",
        "lon": "-70.545556"
    },
    {
        "id": 19464,
        "name": "Wilds Field",
        "count": 5,
        "lat": "43.251399993896484",
        "lon": "-85.54280090332031"
    },
    {
        "id": 31441,
        "name": "Hi Line Lodge Airport",
        "count": 2,
        "lat": "41.69449996948242",
        "lon": "-77.16500091552734"
    },
    {
        "id": 44634,
        "name": "Swedish S.W. Medical Heliport",
        "count": 27,
        "lat": "39.603099823",
        "lon": "-105.091003418"
    },
    {
        "id": 57079,
        "name": "Humphries Rotordrome Airport",
        "count": 5,
        "lat": "39.056702",
        "lon": "-84.204101"
    },
    {
        "id": 13497,
        "name": "Sons Ii Heliport",
        "count": 1,
        "lat": "40.32569885253906",
        "lon": "-74.99130249023438"
    },
    {
        "id": 73942,
        "name": "North Michigan Hospitals Inc Heliport",
        "count": 6,
        "lat": "45.339199066199996",
        "lon": "-84.97280120850002"
    },
    {
        "id": 88191,
        "name": "Walla Walla Regional Airport",
        "count": 2,
        "lat": "46.09489822",
        "lon": "-118.288002"
    },
    {
        "id": 96536,
        "name": "Lincoln Tower Heliport",
        "count": 9,
        "lat": "45.445098876953125",
        "lon": "-122.77400207519531"
    },
    {
        "id": 84878,
        "name": "Hospital Can Misses Heliport",
        "count": 8,
        "lat": "38.91749954223633",
        "lon": "1.4194400310516357"
    },
    {
        "id": 89968,
        "name": "Smyth County Community Hospital Heliport",
        "count": 12,
        "lat": "36.85250092",
        "lon": "-81.50499725"
    },
    {
        "id": 43035,
        "name": "Bay Area Hospital Heliport",
        "count": 11,
        "lat": "43.382939",
        "lon": "-124.232106"
    },
    {
        "id": 65294,
        "name": "Suburban Airport",
        "count": 11,
        "lat": "39.076900482177734",
        "lon": "-76.8280029296875"
    },
    {
        "id": 68911,
        "name": "Mountain Village Airport",
        "count": 1,
        "lat": "62.095401763916016",
        "lon": "-163.6820068359375"
    },
    {
        "id": 69416,
        "name": "Samaritan Hospital Rms Heliport",
        "count": 20,
        "lat": "47.12860107421875",
        "lon": "-119.26399993896484"
    },
    {
        "id": 97534,
        "name": "Northside & Tod Children's Hospital Heliport",
        "count": 19,
        "lat": "41.09920120239258",
        "lon": "-80.65039825439453"
    },
    {
        "id": 82576,
        "name": "L A Co Sheriff Lakewood Heliport",
        "count": 9,
        "lat": "33.8507995605",
        "lon": "-118.133003235"
    },
    {
        "id": 94574,
        "name": "Romeo Airstrip",
        "count": 1,
        "lat": "45.457000732421875",
        "lon": "-92.37830352783203"
    },
    {
        "id": 14845,
        "name": "Sanford Health-Bismark Heliport",
        "count": 11,
        "lat": "46.808252",
        "lon": "-100.782562"
    },
    {
        "id": 49717,
        "name": "Simerly Airport",
        "count": 12,
        "lat": "40.110801696777344",
        "lon": "-94.96890258789062"
    },
    {
        "id": 25707,
        "name": "Marsh Field",
        "count": 5,
        "lat": "39.576698",
        "lon": "-78.9186"
    },
    {
        "id": 89534,
        "name": "Utley Field",
        "count": 12,
        "lat": "30.18272",
        "lon": "-97.406003"
    },
    {
        "id": 29915,
        "name": "North Af Aux Airport",
        "count": 24,
        "lat": "33.6150016784668",
        "lon": "-81.08439636230469"
    },
    {
        "id": 40586,
        "name": "Langille Lake Seaplane Base",
        "count": 1,
        "lat": "44.45000076293945",
        "lon": "-64.44779968261719"
    },
    {
        "id": 30122,
        "name": "Broadway Helicopters Heliport",
        "count": 13,
        "lat": "30.3976993560791",
        "lon": "-86.59410095214844"
    },