[{"location": "Milwaukee, WI", "sighted_at": "19951010", "long": -87.9064736, "is_airport": 0, "lat": 43.0389025},
{"location": "Seattle, WA", "sighted_at": "19950611", "long": -122.3320708, "is_airport": 0, "lat": 47.6062095},
{"location": "Las Vegas, NV", "sighted_at": "19950911", "long": -115.1398296, "is_airport": 0, "lat": 36.1699412},
{"location": "Renton, WA", "sighted_at": "19940801", "long": -122.2170661, "is_airport": 0, "lat": 47.4828776},
{"location": "Springfield, IL", "sighted_at": "19950722", "long": -89.6501481, "is_airport": 0, "lat": 39.7817213},
{"location": "Orlando, FL", "sighted_at": "19951118", "long": -81.3792365, "is_airport": 0, "lat": 28.5383355},
{"location": "Silver Beach, NY", "sighted_at": "19950514", "long": -73.8063889, "is_airport": 0, "lat": 40.8116667},
{"location": "Fontana, CA", "sighted_at": "19950314", "long": -117.435048, "is_airport": 0, "lat": 34.0922335},
{"location": "Hilltop, NJ", "sighted_at": "19950306", "long": -75.0673939, "is_airport": 0, "lat": 39.8245583},
{"location": "Vancouver, WA", "sighted_at": "19950222", "long": -122.6716063, "is_airport": 0, "lat": 45.6318397},
{"location": "Boise, ID", "sighted_at": "19950829", "long": -116.2146068, "is_airport": 0, "lat": 43.6187102},
{"location": "Seattle, WA", "sighted_at": "19950916", "long": -122.3320708, "is_airport": 0, "lat": 47.6062095},
{"location": "Bradenton, FL", "sighted_at": "19950423", "long": -82.5748194, "is_airport": 0, "lat": 27.4989278},
{"location": "Seattle, WA", "sighted_at": "19950222", "long": -122.3320708, "is_airport": 0, "lat": 47.6062095},
{"location": "Corpus Christi, TX", "sighted_at": "19950913", "long": -97.396381, "is_airport": 0, "lat": 27.8005828},
{"location": "Santa Clara, CA", "sighted_at": "19950722", "long": -121.9552356, "is_airport": 0, "lat": 37.3541079},
{"location": "Norfolk, VA", "sighted_at": "19950312", "long": -76.2858726, "is_airport": 0, "lat": 36.8507689},
{"location": "Goldsboro, NC", "sighted_at": "19950603", "long": -77.9927651, "is_airport": 0, "lat": 35.3848841},
{"location": "Fort Wayne, IN", "sighted_at": "19950612", "long": -85.1393513, "is_airport": 0, "lat": 41.079273},
{"location": "Columbia, SC", "sighted_at": "19950312", "long": -81.0348144, "is_airport": 0, "lat": 34.0007104},
{"location": "Phoenix, AZ", "sighted_at": "19950822", "long": -112.0740373, "is_airport": 0, "lat": 33.4483771},
{"location": "Puyallup, WA", "sighted_at": "19950823", "long": -122.2928974, "is_airport": 0, "lat": 47.1853785},
{"location": "Watauga, TX", "sighted_at": "19950420", "long": -97.2547371, "is_airport": 0, "lat": 32.8579056},
{"location": "Las Vegas, NV", "sighted_at": "19951112", "long": -115.1398296, "is_airport": 0, "lat": 36.1699412},
{"location": "Brooklyn, OH", "sighted_at": "19950425", "long": -81.7512107, "is_airport": 0, "lat": 41.4301349},
{"location": "Phoenix, AZ", "sighted_at": "19950826", "long": -112.0740373, "is_airport": 0, "lat": 33.4483771},
{"location": "Piedmont, CA", "sighted_at": "19951001", "long": -122.231635, "is_airport": 0, "lat": 37.8243715},
{"location": "Tacoma, WA", "sighted_at": "19950611", "long": -122.4442906, "is_airport": 0, "lat": 47.2528768},
{"location": "Seattle, WA", "sighted_at": "19950210", "long": -122.3320708, "is_airport": 0, "lat": 47.6062095},
{"location": "Colorado Springs, CO", "sighted_at": "19950904", "long": -104.8213634, "is_airport": 0, "lat": 38.8338816},
{"location": "Bloomington, IL", "sighted_at": "19950206", "long": -88.9936873, "is_airport": 0, "lat": 40.4842027},
{"location": "Fontana, CA", "sighted_at": "19950203", "long": -117.435048, "is_airport": 0, "lat": 34.0922335},
{"location": "Redondo Beach, CA", "sighted_at": "19950204", "long": -118.3884078, "is_airport": 0, "lat": 33.8491816},
{"location": "Reno, NV", "sighted_at": "19950920", "long": -119.8138027, "is_airport": 0, "lat": 39.5296329},
{"location": "Milpitas, CA", "sighted_at": "19950422", "long": -121.8995741, "is_airport": 0, "lat": 37.4323341},
{"location": "Belmont, CA", "sighted_at": "19951103", "long": -122.2758008, "is_airport": 0, "lat": 37.5202145},
{"location": "Tampa, FL", "sighted_at": "19950513", "long": -82.4571776, "is_airport": 0, "lat": 27.950575},
{"location": "Tacoma, WA", "sighted_at": "19951031", "long": -122.4442906, "is_airport": 0, "lat": 47.2528768},
{"location": "Shady Grove, OR", "sighted_at": "19950202", "long": -97.7620263, "is_airport": 0, "lat": 30.2627887},
{"location": "Seattle, WA", "sighted_at": "19950715", "long": -122.3320708, "is_airport": 0, "lat": 47.6062095},
{"location": "Puyallup, WA", "sighted_at": "19950611", "long": -122.2928974, "is_airport": 0, "lat": 47.1853785},
{"location": "Burien, WA", "sighted_at": "19950325", "long": -122.3405305, "is_airport": 0, "lat": 47.4668384},
{"location": "Fort Wayne, IN", "sighted_at": "19950325", "long": -85.1393513, "is_airport": 0, "lat": 41.079273},
{"location": "Federal Way, WA", "sighted_at": "19950519", "long": -122.3126222, "is_airport": 0, "lat": 47.3223221},
{"location": "Seattle, WA", "sighted_at": "19950122", "long": -122.3320708, "is_airport": 0, "lat": 47.6062095},
{"location": "Columbus, OH", "sighted_at": "19950306", "long": -82.9987942, "is_airport": 0, "lat": 39.9611755},
{"location": "North Dade, FL", "sighted_at": "19950324", "long": -80.23117, "is_airport": 0, "lat": 25.916616},
{"location": "Miami, FL", "sighted_at": "19950614", "long": -80.1917902, "is_airport": 0, "lat": 25.7616798},
{"location": "Seattle, WA", "sighted_at": "19950313", "long": -122.3320708, "is_airport": 0, "lat": 47.6062095},
{"location": "Seattle, WA", "sighted_at": "19951118", "long": -122.3320708, "is_airport": 0, "lat": 47.6062095},
{"location": "Portland, OR", "sighted_at": "19950310", "long": -122.6764815, "is_airport": 0, "lat": 45.5230622},
{"location": "Fontana, CA", "sighted_at": "19950822", "long": -117.435048, "is_airport": 0, "lat": 34.0922335},
{"location": "Seattle, WA", "sighted_at": "19950220", "long": -122.3320708, "is_airport": 0, "lat": 47.6062095},
{"location": "New York City, NY", "sighted_at": "19950902", "long": -73.9712488, "is_airport": 0, "lat": 40.7830603},
{"location": "Seattle, WA", "sighted_at": "19950314", "long": -122.3320708, "is_airport": 0, "lat": 47.6062095},
{"location": "Spanaway, WA", "sighted_at": "19950131", "long": -122.4345661, "is_airport": 0, "lat": 47.103988},
{"location": "Bellevue, WA", "sighted_at": "19950720", "long": -122.2015159, "is_airport": 0, "lat": 47.6101497},
{"location": "Madison, WI", "sighted_at": "19950512", "long": -89.4012302, "is_airport": 0, "lat": 43.0730517},
{"location": "Billings, MT", "sighted_at": "19950210", "long": -108.5006904, "is_airport": 0, "lat": 45.7832856},
{"location": "Seattle, WA", "sighted_at": "19950223", "long": -122.3320708, "is_airport": 0, "lat": 47.6062095},
{"location": "Seattle, WA", "sighted_at": "19950117", "long": -122.3320708, "is_airport": 0, "lat": 47.6062095},
{"location": "Fort Wayne, IN", "sighted_at": "19950330", "long": -85.1393513, "is_airport": 0, "lat": 41.079273},
{"location": "Portland, OR", "sighted_at": "19950729", "long": -122.6764815, "is_airport": 0, "lat": 45.5230622},
{"location": "Phoenix, AZ", "sighted_at": "19951119", "long": -112.0740373, "is_airport": 0, "lat": 33.4483771},
{"location": "Fairfield, CA", "sighted_at": "19950611", "long": -122.0399663, "is_airport": 0, "lat": 38.2493581},
{"location": "Tacoma, WA", "sighted_at": "19950416", "long": -122.4442906, "is_airport": 0, "lat": 47.2528768},
{"location": "Culver City, CA", "sighted_at": "19950820", "long": -118.3964665, "is_airport": 0, "lat": 34.0211224},
{"location": "Honolulu, HI", "sighted_at": "19950330", "long": -157.8583333, "is_airport": 0, "lat": 21.3069444},
{"location": "Scottsdale, AZ", "sighted_at": "19950326", "long": -111.9260519, "is_airport": 0, "lat": 33.4941704},
{"location": "Whiteman AFB, MO", "sighted_at": "19950219", "long": -93.5605515, "is_airport": 0, "lat": 38.7289955},
{"location": "Seattle, WA", "sighted_at": "19950715", "long": -122.3320708, "is_airport": 0, "lat": 47.6062095},
{"location": "Salt Lake City, UT", "sighted_at": "19950911", "long": -111.8910474, "is_airport": 0, "lat": 40.7607793},
{"location": "Albuquerque, NM", "sighted_at": "19950216", "long": -106.6055534, "is_airport": 0, "lat": 35.0853336},
{"location": "Oakland, CA", "sighted_at": "19950810", "long": -122.2711137, "is_airport": 0, "lat": 37.8043637},
{"location": "Travis AFB, CA", "sighted_at": "19950830", "long": -121.944889, "is_airport": 0, "lat": 38.2706059},
{"location": "Portland, OR", "sighted_at": "19950908", "long": -122.6764815, "is_airport": 0, "lat": 45.5230622},
{"location": "Fircrest, WA", "sighted_at": "19950711", "long": -122.5159586, "is_airport": 0, "lat": 47.2395428},
{"location": "Tacoma, WA", "sighted_at": "19950628", "long": -122.4442906, "is_airport": 0, "lat": 47.2528768},
{"location": "Seattle, WA", "sighted_at": "19950103", "long": -122.3320708, "is_airport": 0, "lat": 47.6062095},
{"location": "Las Vegas, NV", "sighted_at": "19950518", "long": -115.1398296, "is_airport": 0, "lat": 36.1699412},
{"location": "Sector 18, NY", "sighted_at": "19951117", "long": -79.4752768, "is_airport": 0, "lat": 9.0229135},
{"location": "Seatac, WA", "sighted_at": "19950202", "long": -122.2960726, "is_airport": 0, "lat": 47.4435903},
{"location": "Seattle, WA", "sighted_at": "19950314", "long": -122.3320708, "is_airport": 0, "lat": 47.6062095},
{"location": "Louisville, KY", "sighted_at": "19950422", "long": -85.7584557, "is_airport": 0, "lat": 38.2526647},
{"location": "Phoenix, AZ", "sighted_at": "19950219", "long": -112.0740373, "is_airport": 0, "lat": 33.4483771},
{"location": "Atlanta, GA", "sighted_at": "19950205", "long": -84.3879824, "is_airport": 0, "lat": 33.7489954},
{"location": "Tacoma, WA", "sighted_at": "19950815", "long": -122.4442906, "is_airport": 0, "lat": 47.2528768},
{"location": "Minneapolis, MN", "sighted_at": "19900101", "long": -93.2650108, "is_airport": 0, "lat": 44.977753},
{"location": "Maryland Hts., MO", "sighted_at": "19951103", "long": -90.4298401, "is_airport": 0, "lat": 38.7131073},
{"location": "Vashon Island, WA", "sighted_at": "19950815", "long": -122.4598502, "is_airport": 0, "lat": 47.4473204},
{"location": "Louisville, KY", "sighted_at": "19950823", "long": -85.7584557, "is_airport": 0, "lat": 38.2526647},
{"location": "Fairfield, CA", "sighted_at": "19950529", "long": -122.0399663, "is_airport": 0, "lat": 38.2493581},
{"location": "Seatac, WA", "sighted_at": "19950111", "long": -122.2960726, "is_airport": 0, "lat": 47.4435903},
{"location": "Gorham, ME", "sighted_at": "19950115", "long": -70.4442252, "is_airport": 0, "lat": 43.6795314},
{"location": "Vacaville, CA", "sighted_at": "19951001", "long": -121.9877444, "is_airport": 0, "lat": 38.3565773},
{"location": "Fontana, CA", "sighted_at": "19950609", "long": -117.435048, "is_airport": 0, "lat": 34.0922335},
{"location": "Kent, WA", "sighted_at": "19950222", "long": -122.2348432, "is_airport": 0, "lat": 47.3809335},
{"location": "Seattle, WA", "sighted_at": "19950314", "long": -122.3320708, "is_airport": 0, "lat": 47.6062095},
{"location": "Romulus, MI", "sighted_at": "19950203", "long": -83.3965994, "is_airport": 0, "lat": 42.2222614},
{"location": "West Valley City, UT", "sighted_at": "19951007", "long": -112.0010501, "is_airport": 0, "lat": 40.6916132},
{"location": "Roy, WA", "sighted_at": "19941230", "long": -122.539846, "is_airport": 0, "lat": 47.0042643},
{"location": "Tempe, AZ", "sighted_at": "19950822", "long": -111.9400054, "is_airport": 0, "lat": 33.4255104},
{"location": "Edwards AFB, CA", "sighted_at": "19950512", "long": -117.8912085, "is_airport": 0, "lat": 34.9240314},
{"location": "Cam Highway, HI", "sighted_at": "19950224", "long": 108.2032703, "is_airport": 0, "lat": 16.0172404},
{"location": "Fort Wayne, IN", "sighted_at": "19950311", "long": -85.1393513, "is_airport": 0, "lat": 41.079273},
{"location": "Des Plaines, IL", "sighted_at": "19950216", "long": -87.8833991, "is_airport": 0, "lat": 42.0333623},
{"location": "Austin, TX", "sighted_at": "19951001", "long": -97.7430608, "is_airport": 0, "lat": 30.267153},
{"location": "Las Vegas, NV", "sighted_at": "19950324", "long": -115.1398296, "is_airport": 0, "lat": 36.1699412},
{"location": "Gardendale, LA", "sighted_at": "19950603", "long": -86.8127702, "is_airport": 0, "lat": 33.6601033},
{"location": "Salt Lake City, UT", "sighted_at": "19950818", "long": -111.8910474, "is_airport": 0, "lat": 40.7607793},
{"location": "Bellevue, WA", "sighted_at": "19950528", "long": -122.2015159, "is_airport": 0, "lat": 47.6101497},
{"location": "Portland, OR", "sighted_at": "19950808", "long": -122.6764815, "is_airport": 0, "lat": 45.5230622},
{"location": "Nashville, TN", "sighted_at": "19950215", "long": -86.7816016, "is_airport": 0, "lat": 36.1626638},
{"location": "Albuquerque, NM", "sighted_at": "19950220", "long": -106.6055534, "is_airport": 0, "lat": 35.0853336},
{"location": "Tacoma, WA", "sighted_at": "19951013", "long": -122.4442906, "is_airport": 0, "lat": 47.2528768},
{"location": "Addison, TX", "sighted_at": "19950604", "long": -96.8291685, "is_airport": 0, "lat": 32.96179},
{"location": "Fontana, CA", "sighted_at": "19950822", "long": -117.435048, "is_airport": 0, "lat": 34.0922335},
{"location": "Fontana, CA", "sighted_at": "19941231", "long": -117.435048, "is_airport": 0, "lat": 34.0922335},
{"location": "Las Vegas, NV", "sighted_at": "19950311", "long": -115.1398296, "is_airport": 0, "lat": 36.1699412},
{"location": "Pembrook Pines, FL", "sighted_at": "19950419", "long": -80.2962555, "is_airport": 0, "lat": 26.007765},
{"location": "Las Vegas, NV", "sighted_at": "19950910", "long": -115.1398296, "is_airport": 0, "lat": 36.1699412},
{"location": "Portland, OR", "sighted_at": "19950515", "long": -122.6764815, "is_airport": 0, "lat": 45.5230622},
{"location": "Hazel Dell, WA", "sighted_at": "19950804", "long": -122.6628756, "is_airport": 0, "lat": 45.6715055},
{"location": "Bellevue, WA", "sighted_at": "19950812", "long": -122.2015159, "is_airport": 0, "lat": 47.6101497},
{"location": "Salt Lake City, UT", "sighted_at": "19950925", "long": -111.8910474, "is_airport": 0, "lat": 40.7607793},
{"location": "Boise, ID", "sighted_at": "19950905", "long": -116.2146068, "is_airport": 0, "lat": 43.6187102},
{"location": "Madison, WI", "sighted_at": "19951014", "long": -89.4012302, "is_airport": 0, "lat": 43.0730517},
{"location": "Seattle, WA", "sighted_at": "19950728", "long": -122.3320708, "is_airport": 0, "lat": 47.6062095},
{"location": "Seattle, WA", "sighted_at": "19951030", "long": -122.3320708, "is_airport": 0, "lat": 47.6062095},
{"location": "Tacoma, WA", "sighted_at": "19950814", "long": -122.4442906, "is_airport": 0, "lat": 47.2528768},
{"location": "Sacramento, CA", "sighted_at": "19950811", "long": -121.4943996, "is_airport": 0, "lat": 38.5815719},
{"location": "Huntington Beach, CA", "sighted_at": "19950209", "long": -117.9988026, "is_airport": 0, "lat": 33.6594835},
{"location": "Vancouver, WA", "sighted_at": "19950209", "long": -122.6716063, "is_airport": 0, "lat": 45.6318397},
{"location": "Portland, OR", "sighted_at": "19950307", "long": -122.6764815, "is_airport": 0, "lat": 45.5230622},
{"location": "Simsbury, CT", "sighted_at": "19951117", "long": -72.827915, "is_airport": 0, "lat": 41.8540094},
{"location": "West Seattle, WA", "sighted_at": "19951103", "long": -122.3867537, "is_airport": 0, "lat": 47.5666668},
{"location": "Medford, MA", "sighted_at": "19950416", "long": -71.1061639, "is_airport": 0, "lat": 42.4184296},
{"location": "Chesapeake, VA", "sighted_at": "19950311", "long": -76.2874927, "is_airport": 0, "lat": 36.7682088},
{"location": "Seatac, WA", "sighted_at": "19950217", "long": -122.2960726, "is_airport": 0, "lat": 47.4435903},
{"location": "Bellevue, WA", "sighted_at": "19950307", "long": -122.2015159, "is_airport": 0, "lat": 47.6101497},
{"location": "Seymour-Johnson AFB, NC", "sighted_at": "19951117", "long": -77.9652573, "is_airport": 0, "lat": 35.3512588},
{"location": "Upland, CA", "sighted_at": "19950823", "long": -117.6483876, "is_airport": 0, "lat": 34.09751},
{"location": "Boston, MA", "sighted_at": "19950414", "long": -71.0588801, "is_airport": 0, "lat": 42.3600825},
{"location": "Sacramento, CA", "sighted_at": "19950719", "long": -121.4943996, "is_airport": 0, "lat": 38.5815719},
{"location": "Fife, WA", "sighted_at": "19950815", "long": -122.3570664, "is_airport": 0, "lat": 47.2392665},
{"location": "Rochester, NY", "sighted_at": "19950727", "long": -77.6109219, "is_airport": 0, "lat": 43.16103},
{"location": "Seattle, WA", "sighted_at": "19951117", "long": -122.3320708, "is_airport": 0, "lat": 47.6062095},
{"location": "Richmond, VA", "sighted_at": "19950412", "long": -77.4360481, "is_airport": 0, "lat": 37.5407246},
{"location": "New York City, NY", "sighted_at": "19950915", "long": -74.0059728, "is_airport": 0, "lat": 40.7127753},
{"location": "Seattle, WA", "sighted_at": "19951117", "long": -122.3320708, "is_airport": 0, "lat": 47.6062095},
{"location": "Tacoma, WA", "sighted_at": "19950414", "long": -122.4442906, "is_airport": 0, "lat": 47.2528768},
{"location": "Renton, WA", "sighted_at": "19950208", "long": -122.2170661, "is_airport": 0, "lat": 47.4828776},
{"location": "Mercer Island, WA", "sighted_at": "19950224", "long": -122.2220674, "is_airport": 0, "lat": 47.5706548},
{"location": "Renton, WA", "sighted_at": "19950207", "long": -122.2170661, "is_airport": 0, "lat": 47.4828776},
{"location": "Tucson, AZ", "sighted_at": "19950808", "long": -110.926479, "is_airport": 0, "lat": 32.2217429},
{"location": "Portland, OR", "sighted_at": "19950422", "long": -122.6764815, "is_airport": 0, "lat": 45.5230622},
{"location": "Spokane, WA", "sighted_at": "19951014", "long": -117.4260465, "is_airport": 0, "lat": 47.6587802},
{"location": "Birmingham, AL", "sighted_at": "19950719", "long": -86.80249, "is_airport": 0, "lat": 33.5206608},
{"location": "Des Moines, WA", "sighted_at": "19951014", "long": -122.3242901, "is_airport": 0, "lat": 47.4017661},
{"location": "Costa Mesa, CA", "sighted_at": "19950401", "long": -117.9188221, "is_airport": 0, "lat": 33.6412156},
{"location": "Tacoma, WA", "sighted_at": "19951117", "long": -122.4442906, "is_airport": 0, "lat": 47.2528768},
{"location": "Huntington, WV", "sighted_at": "19951011", "long": -82.445154, "is_airport": 0, "lat": 38.4192496},
{"location": "Seattle, WA", "sighted_at": "19950915", "long": -122.3320708, "is_airport": 0, "lat": 47.6062095},
{"location": "Reno, NV", "sighted_at": "19950503", "long": -119.8138027, "is_airport": 0, "lat": 39.5296329},
{"location": "Seattle, WA", "sighted_at": "19941224", "long": -122.3320708, "is_airport": 0, "lat": 47.6062095},
{"location": "Tacoma, WA", "sighted_at": "19951031", "long": -122.4442906, "is_airport": 0, "lat": 47.2528768},
{"location": "Memphis, TN", "sighted_at": "19950109", "long": -90.0489801, "is_airport": 0, "lat": 35.1495343},
{"location": "Belleville, IL", "sighted_at": "19950727", "long": -89.9839935, "is_airport": 0, "lat": 38.5200504},
{"location": "Renton, WA", "sighted_at": "19950720", "long": -122.2170661, "is_airport": 0, "lat": 47.4828776},
{"location": "Bellevue, WA", "sighted_at": "19950804", "long": -122.2015159, "is_airport": 0, "lat": 47.6101497},
{"location": "Seattle, WA", "sighted_at": "19720101", "long": -122.3320708, "is_airport": 0, "lat": 47.6062095},
{"location": "Puyallup, WA", "sighted_at": "19951006", "long": -122.2928974, "is_airport": 0, "lat": 47.1853785},
{"location": "Tampa, FL", "sighted_at": "19951106", "long": -82.4571776, "is_airport": 0, "lat": 27.950575},
{"location": "W. Chicago, IL", "sighted_at": "19950515", "long": -87.6297982, "is_airport": 0, "lat": 41.8781136},
{"location": "Tacoma, WA", "sighted_at": "19950207", "long": -122.4442906, "is_airport": 0, "lat": 47.2528768},
{"location": "Spokane, WA", "sighted_at": "19950323", "long": -117.4260465, "is_airport": 0, "lat": 47.6587802},
{"location": "Lockwood, NV", "sighted_at": "19950317", "long": -119.6465731, "is_airport": 0, "lat": 39.5071343},
{"location": "Seattle, WA", "sighted_at": "19950105", "long": -122.3320708, "is_airport": 0, "lat": 47.6062095},
{"location": "Sacramento, CA", "sighted_at": "19950216", "long": -121.4943996, "is_airport": 0, "lat": 38.5815719},
{"location": "Santa Ana, CA", "sighted_at": "19950716", "long": -117.867653, "is_airport": 0, "lat": 33.7454725},
{"location": "Puyallup, WA", "sighted_at": "19950729", "long": -122.2928974, "is_airport": 0, "lat": 47.1853785},
{"location": "Hialeah, FL", "sighted_at": "19950527", "long": -80.2781057, "is_airport": 0, "lat": 25.8575963},
{"location": "Vancouver, WA", "sighted_at": "19950209", "long": -122.6716063, "is_airport": 0, "lat": 45.6318397},
{"location": "Lexington, KY", "sighted_at": "19950223", "long": -84.5037164, "is_airport": 0, "lat": 38.0405837},
{"location": "Mercer Island, WA", "sighted_at": "19950905", "long": -122.2220674, "is_airport": 0, "lat": 47.5706548},
{"location": "Birmingham, AL", "sighted_at": "19951113", "long": -86.80249, "is_airport": 0, "lat": 33.5206608},
{"location": "San Diego, CA", "sighted_at": "19950430", "long": -117.1610838, "is_airport": 0, "lat": 32.715738},
{"location": "Seatac, WA", "sighted_at": "19950127", "long": -122.2960726, "is_airport": 0, "lat": 47.4435903},
{"location": "Spokane, WA", "sighted_at": "19950429", "long": -117.4260465, "is_airport": 0, "lat": 47.6587802},
{"location": "Seattle, WA", "sighted_at": "19950918", "long": -122.3320708, "is_airport": 0, "lat": 47.6062095},
{"location": "Ellisville, MO", "sighted_at": "19951029", "long": -90.5870686, "is_airport": 0, "lat": 38.5925532},
{"location": "Seattle, WA", "sighted_at": "19950921", "long": -122.3320708, "is_airport": 0, "lat": 47.6062095},
{"location": "Seattle, WA", "sighted_at": "19950325", "long": -122.3320708, "is_airport": 0, "lat": 47.6062095},
{"location": "Portland, OR", "sighted_at": "19950307", "long": -122.6764815, "is_airport": 0, "lat": 45.5230622},
{"location": "Seattle, WA", "sighted_at": "19950812", "long": -122.3320708, "is_airport": 0, "lat": 47.6062095},
{"location": "Eastgate, WA", "sighted_at": "19950228", "long": -122.1353508, "is_airport": 0, "lat": 47.5730972},
{"location": "New York City, NY", "sighted_at": "19950915", "long": -74.0059728, "is_airport": 0, "lat": 40.7127753},
{"location": "Seattle, WA", "sighted_at": "19950207", "long": -122.3320708, "is_airport": 0, "lat": 47.6062095},
{"location": "Portland, OR", "sighted_at": "19950225", "long": -122.6764815, "is_airport": 0, "lat": 45.5230622},
{"location": "Vancouver, WA", "sighted_at": "19951019", "long": -122.6716063, "is_airport": 0, "lat": 45.6318397},
{"location": "Las Vegas, NV", "sighted_at": "19950928", "long": -115.1398296, "is_airport": 0, "lat": 36.1699412},
{"location": "Seattle, WA", "sighted_at": "19951117", "long": -122.3320708, "is_airport": 0, "lat": 47.6062095},
{"location": "Seattle, WA", "sighted_at": "19950219", "long": -122.3320708, "is_airport": 0, "lat": 47.6062095},
{"location": "Tacoma, WA", "sighted_at": "19950801", "long": -122.4442906, "is_airport": 0, "lat": 47.2528768},
{"location": "Seattle, WA", "sighted_at": "19951004", "long": -122.3320708, "is_airport": 0, "lat": 47.6062095},
{"location": "Vancouver, WA", "sighted_at": "19951019", "long": -122.6716063, "is_airport": 0, "lat": 45.6318397},
{"location": "Vancouver, WA", "sighted_at": "19950804", "long": -122.6716063, "is_airport": 0, "lat": 45.6318397},
{"location": "Seattle, WA", "sighted_at": "19950507", "long": -122.3320708, "is_airport": 0, "lat": 47.6062095},
{"location": "Sacramento, CA", "sighted_at": "19950929", "long": -121.4943996, "is_airport": 0, "lat": 38.5815719},
{"location": "Phoenix, AZ", "sighted_at": "19951008", "long": -112.0740373, "is_airport": 0, "lat": 33.4483771},
{"location": "Las Vegas, NV", "sighted_at": "19950324", "long": -115.1398296, "is_airport": 0, "lat": 36.1699412},
{"location": "Sarasota, FL", "sighted_at": "19950825", "long": -82.5306527, "is_airport": 0, "lat": 27.3364347},
{"location": "New York City/Brooklyn, NY", "sighted_at": "19951011", "long": -73.9441579, "is_airport": 0, "lat": 40.6781784},
{"location": "Seattle, WA", "sighted_at": "19950821", "long": -122.3320708, "is_airport": 0, "lat": 47.6062095},
{"location": "Miami, FL", "sighted_at": "19951017", "long": -80.1917902, "is_airport": 0, "lat": 25.7616798},
{"location": "Irving, TX", "sighted_at": "19950628", "long": -96.9488945, "is_airport": 0, "lat": 32.8140177},
{"location": "Portland, OR", "sighted_at": "19950121", "long": -122.6764815, "is_airport": 0, "lat": 45.5230622},
{"location": "Little Rock, AR", "sighted_at": "19950206", "long": -92.2895948, "is_airport": 0, "lat": 34.7464809},
{"location": "Inglewood, CA", "sighted_at": "19950829", "long": -118.3531311, "is_airport": 0, "lat": 33.9616801},
{"location": "Avondale, AZ", "sighted_at": "19950312", "long": -112.3496021, "is_airport": 0, "lat": 33.4355977},
{"location": "North Las Vegas, NV", "sighted_at": "19951005", "long": -115.1175013, "is_airport": 0, "lat": 36.1988592},
{"location": "Federal Way, WA", "sighted_at": "19950814", "long": -122.3126222, "is_airport": 0, "lat": 47.3223221},
{"location": "Portland, OR", "sighted_at": "19950625", "long": -122.6764815, "is_airport": 0, "lat": 45.5230622},
{"location": "Mascoutah, IL", "sighted_at": "19951105", "long": -89.793154, "is_airport": 0, "lat": 38.490327},
{"location": "Keesler AFB, MS", "sighted_at": "19951112", "long": -88.9252664, "is_airport": 0, "lat": 30.4094159},
{"location": "Sacramento, CA", "sighted_at": "19950804", "long": -121.4943996, "is_airport": 0, "lat": 38.5815719},
{"location": "Portland, OR", "sighted_at": "19950425", "long": -122.6764815, "is_airport": 0, "lat": 45.5230622},
{"location": "Renton, WA", "sighted_at": "19950122", "long": -122.2170661, "is_airport": 0, "lat": 47.4828776},
{"location": "Tacoma, WA", "sighted_at": "19950223", "long": -122.4442906, "is_airport": 0, "lat": 47.2528768},
{"location": "Fort Lewis, WA", "sighted_at": "19950201", "long": -122.4857321, "is_airport": 0, "lat": 47.1342432},
{"location": "Vancouver, WA", "sighted_at": "19930502", "long": -122.6716063, "is_airport": 0, "lat": 45.6318397},
{"location": "Seattle, WA", "sighted_at": "19950314", "long": -122.3320708, "is_airport": 0, "lat": 47.6062095},
{"location": "Gresham, OR", "sighted_at": "19950507", "long": -122.4486119, "is_airport": 0, "lat": 45.5059203},
{"location": "Puyallup, WA", "sighted_at": "19950920", "long": -122.2928974, "is_airport": 0, "lat": 47.1853785},
{"location": "Tacoma, WA", "sighted_at": "19950527", "long": -122.4442906, "is_airport": 0, "lat": 47.2528768},
{"location": "Tallahassee, FL", "sighted_at": "19950913", "long": -84.2807329, "is_airport": 0, "lat": 30.4382559},
{"location": "Seattle, WA", "sighted_at": "19950422", "long": -122.3320708, "is_airport": 0, "lat": 47.6062095},
{"location": "Lexington, KY", "sighted_at": "19951105", "long": -84.5037164, "is_airport": 0, "lat": 38.0405837},
{"location": "Tacoma, WA", "sighted_at": "19950821", "long": -122.4442906, "is_airport": 0, "lat": 47.2528768},
{"location": "Belmont, CA", "sighted_at": "19950728", "long": -122.2758008, "is_airport": 0, "lat": 37.5202145},
{"location": "Memphis, TN", "sighted_at": "19950502", "long": -90.0489801, "is_airport": 0, "lat": 35.1495343},
{"location": "West Seattle, WA", "sighted_at": "19950725", "long": -122.3867537, "is_airport": 0, "lat": 47.5666668},
{"location": "Seattle, WA", "sighted_at": "19950714", "long": -122.3320708, "is_airport": 0, "lat": 47.6062095},
{"location": "Richardson, TX", "sighted_at": "19950917", "long": -96.7298519, "is_airport": 0, "lat": 32.9483335},
{"location": "Oklahoma City, OK", "sighted_at": "19800107", "long": -97.5164276, "is_airport": 0, "lat": 35.4675602},
{"location": "Oakland, CA", "sighted_at": "19951010", "long": -122.2711137, "is_airport": 0, "lat": 37.8043637},
{"location": "Puyallup, WA", "sighted_at": "19950811", "long": -122.2928974, "is_airport": 0, "lat": 47.1853785},
{"location": "Phoenix, AZ", "sighted_at": "19950521", "long": -112.0740373, "is_airport": 0, "lat": 33.4483771},
{"location": "Renton, WA", "sighted_at": "19950116", "long": -122.2170661, "is_airport": 0, "lat": 47.4828776},
{"location": "Seattle, WA", "sighted_at": "19950123", "long": -122.3320708, "is_airport": 0, "lat": 47.6062095},
{"location": "Seattle, WA", "sighted_at": "19950801", "long": -122.3320708, "is_airport": 0, "lat": 47.6062095},
{"location": "Brentwood, TN", "sighted_at": "19950524", "long": -86.7827772, "is_airport": 0, "lat": 36.0331164},
{"location": "Richmond, VA", "sighted_at": "19950419", "long": -77.4360481, "is_airport": 0, "lat": 37.5407246},
{"location": "Boise, ID", "sighted_at": "19950924", "long": -116.2146068, "is_airport": 0, "lat": 43.6187102},
{"location": "South Park, WA", "sighted_at": "19950817", "long": -122.3257361, "is_airport": 0, "lat": 47.5310941},
{"location": "Anchorage, AK", "sighted_at": "19950117", "long": -149.9002778, "is_airport": 0, "lat": 61.2180556},
{"location": "Dallas, TX", "sighted_at": "19891126", "long": -96.7969879, "is_airport": 0, "lat": 32.7766642},
{"location": "Baltimore, MD", "sighted_at": "19950730", "long": -76.6121893, "is_airport": 0, "lat": 39.2903848},
{"location": "Colorado Springs, CO", "sighted_at": "19950917", "long": -104.8213634, "is_airport": 0, "lat": 38.8338816},
{"location": "Culver City, CA", "sighted_at": "19950729", "long": -118.3964665, "is_airport": 0, "lat": 34.0211224},
{"location": "Wichita, KS", "sighted_at": "19950612", "long": -97.330053, "is_airport": 0, "lat": 37.6871761},
{"location": "Daytona Beach, FL", "sighted_at": "19961126", "long": -81.0228331, "is_airport": 0, "lat": 29.2108147},
{"location": "Spanaway, WA", "sighted_at": "19960115", "long": -122.4345661, "is_airport": 0, "lat": 47.103988},
{"location": "Baltimore, MD", "sighted_at": "19960412", "long": -76.6121893, "is_airport": 0, "lat": 39.2903848},
{"location": "Sewickly, PA", "sighted_at": "19960315", "long": -80.1844243, "is_airport": 0, "lat": 40.5364846},
{"location": "New York City, NY", "sighted_at": "19961116", "long": -74.0059728, "is_airport": 0, "lat": 40.7127753},
{"location": "Sumter, SC", "sighted_at": "19951120", "long": -80.3414693, "is_airport": 0, "lat": 33.9204354},
{"location": "Springfield, MO", "sighted_at": "19960113", "long": -93.2922989, "is_airport": 0, "lat": 37.2089572},
{"location": "Houston, TX", "sighted_at": "19951210", "long": -95.3698028, "is_airport": 0, "lat": 29.7604267},
{"location": "San Diego, CA", "sighted_at": "19960405", "long": -117.1610838, "is_airport": 0, "lat": 32.715738},
{"location": "Sunrise, FL", "sighted_at": "19961217", "long": -80.256595, "is_airport": 0, "lat": 26.1669711},
{"location": "Las Vegas, NV", "sighted_at": "19960404", "long": -115.1398296, "is_airport": 0, "lat": 36.1699412},
{"location": "Billings, MT", "sighted_at": "19960406", "long": -108.5006904, "is_airport": 0, "lat": 45.7832856},
{"location": "Bellevue, WA", "sighted_at": "19941015", "long": -122.2015159, "is_airport": 0, "lat": 47.6101497},
{"location": "Cancun", "sighted_at": "19960920", "long": -86.759119, "is_airport": 0, "lat": 21.112627},
{"location": "Houston, TX", "sighted_at": "19960322", "long": -95.3698028, "is_airport": 0, "lat": 29.7604267},
{"location": "Seattle, WA", "sighted_at": "19961107", "long": -122.3320708, "is_airport": 0, "lat": 47.6062095},
{"location": "Baltimore, MD", "sighted_at": "19960628", "long": -76.6121893, "is_airport": 0, "lat": 39.2903848},
{"location": "Bellevue, WA", "sighted_at": "19951128", "long": -122.2015159, "is_airport": 0, "lat": 47.6101497},
{"location": "Fontana, CA", "sighted_at": "19960403", "long": -117.435048, "is_airport": 0, "lat": 34.0922335},
{"location": "Scottsdale, AZ", "sighted_at": "19960604", "long": -111.9260519, "is_airport": 0, "lat": 33.4941704},
{"location": "Las Vegas, NV", "sighted_at": "19960201", "long": -115.1398296, "is_airport": 0, "lat": 36.1699412},
{"location": "Renton, WA", "sighted_at": "19960620", "long": -122.2170661, "is_airport": 0, "lat": 47.4828776},
{"location": "Miami, Fl", "sighted_at": "19960517", "long": -80.1917902, "is_airport": 0, "lat": 25.7616798},
{"location": "Fort Walton Beach, Fl", "sighted_at": "19960428", "long": -86.6170308, "is_airport": 0, "lat": 30.4200708},
{"location": "Pomona, CA", "sighted_at": "19951214", "long": -117.7499909, "is_airport": 0, "lat": 34.055103},
{"location": "Seattle, WA", "sighted_at": "19951230", "long": -122.3320708, "is_airport": 0, "lat": 47.6062095},
{"location": "Fort Lauderdale, FL", "sighted_at": "19960226", "long": -80.1373174, "is_airport": 0, "lat": 26.1224386},
{"location": "Canberra", "sighted_at": "19961125", "long": 149.1300092, "is_airport": 0, "lat": -35.2809368},
{"location": "Sarasota, FL", "sighted_at": "19950731", "long": -82.5306527, "is_airport": 0, "lat": 27.3364347},
{"location": "Seattle, WA", "sighted_at": "19960812", "long": -122.3320708, "is_airport": 0, "lat": 47.6062095},
{"location": "Oldsmar, FL", "sighted_at": "19951207", "long": -82.6650992, "is_airport": 0, "lat": 28.0341847},
{"location": "Rochester, NY", "sighted_at": "19960513", "long": -77.6109219, "is_airport": 0, "lat": 43.16103},
{"location": "Bandy, NY", "sighted_at": "19961116", "long": -74.0051273, "is_airport": 0, "lat": 40.7274849},
{"location": "Fontana, CA", "sighted_at": "19960403", "long": -117.435048, "is_airport": 0, "lat": 34.0922335},
{"location": "Woodland, CA", "sighted_at": "19951122", "long": -121.7732971, "is_airport": 0, "lat": 38.6785157},
{"location": "Minneapolis, MN", "sighted_at": "19960414", "long": -93.2650108, "is_airport": 0, "lat": 44.977753},
{"location": "Chattanooga, TN", "sighted_at": "19951218", "long": -85.3096801, "is_airport": 0, "lat": 35.0456297},
{"location": "Garden Grove, CA", "sighted_at": "19931015", "long": -117.9379952, "is_airport": 0, "lat": 33.7742692},
{"location": "Newcastle, WA", "sighted_at": "19960228", "long": -122.1556769, "is_airport": 0, "lat": 47.5389889},
{"location": "Rio de Janeiro", "sighted_at": "19970119", "long": -43.1728965, "is_airport": 0, "lat": -22.9068467},
{"location": "Tampa, FL", "sighted_at": "19960506", "long": -82.4571776, "is_airport": 0, "lat": 27.950575},
{"location": "Seattle, WA", "sighted_at": "19960518", "long": -122.3320708, "is_airport": 0, "lat": 47.6062095},
{"location": "Campbell, CA", "sighted_at": "19960415", "long": -121.9499568, "is_airport": 0, "lat": 37.2871651},
{"location": "Seattle, WA", "sighted_at": "19951117", "long": -122.3320708, "is_airport": 0, "lat": 47.6062095},
{"location": "Reno, NV", "sighted_at": "19961222", "long": -119.8138027, "is_airport": 0, "lat": 39.5296329},
{"location": "Woodland, CA", "sighted_at": "19951125", "long": -121.7732971, "is_airport": 0, "lat": 38.6785157},
{"location": "Phoenix, AZ", "sighted_at": "19960509", "long": -112.0740373, "is_airport": 0, "lat": 33.4483771},
{"location": "Vashon Island, WA", "sighted_at": "19961214", "long": -122.4598502, "is_airport": 0, "lat": 47.4473204},
{"location": "Tampa, FL", "sighted_at": "19951120", "long": -82.4571776, "is_airport": 0, "lat": 27.950575},
{"location": "Winter Springs, FL", "sighted_at": "19970201", "long": -81.3081226, "is_airport": 0, "lat": 28.6988853},
{"location": "Seattle, WA", "sighted_at": "19961217", "long": -122.3320708, "is_airport": 0, "lat": 47.6062095},
{"location": "Billings, MT", "sighted_at": "19970112", "long": -108.5006904, "is_airport": 0, "lat": 45.7832856},
{"location": "San Diego, CA", "sighted_at": "19960118", "long": -117.1610838, "is_airport": 0, "lat": 32.715738},
{"location": "Portland, OR", "sighted_at": "19960325", "long": -122.6764815, "is_airport": 0, "lat": 45.5230622},
{"location": "Madison, WI", "sighted_at": "19960120", "long": -89.4012302, "is_airport": 0, "lat": 43.0730517},
{"location": "Seattle, WA", "sighted_at": "19951204", "long": -122.3320708, "is_airport": 0, "lat": 47.6062095},
{"location": "Seattle, WA", "sighted_at": "19961219", "long": -122.3320708, "is_airport": 0, "lat": 47.6062095},
{"location": "Portland, OR", "sighted_at": "19950922", "long": -122.6764815, "is_airport": 0, "lat": 45.5230622},
{"location": "Phoenix, AZ", "sighted_at": "19960125", "long": -112.0740373, "is_airport": 0, "lat": 33.4483771},
{"location": "Madison, TN", "sighted_at": "19960223", "long": -86.7143516, "is_airport": 0, "lat": 36.2562002},
{"location": "Miami, FL", "sighted_at": "19960326", "long": -80.1917902, "is_airport": 0, "lat": 25.7616798},
{"location": "San Diego, CA", "sighted_at": "19960617", "long": -117.1610838, "is_airport": 0, "lat": 32.715738},
{"location": "Rochester, MN", "sighted_at": "19960422", "long": -92.4801989, "is_airport": 0, "lat": 44.0121221},
{"location": "Memphis, TN", "sighted_at": "19961018", "long": -90.0489801, "is_airport": 0, "lat": 35.1495343},
{"location": "Perth", "sighted_at": "19961125", "long": 115.8604572, "is_airport": 0, "lat": -31.9505269},
{"location": "Las Vegas, NV", "sighted_at": "19970118", "long": -115.1398296, "is_airport": 0, "lat": 36.1699412},
{"location": "San Jose, CA", "sighted_at": "19960801", "long": -121.8863286, "is_airport": 0, "lat": 37.3382082},
{"location": "Phoenix, AZ", "sighted_at": "19951210", "long": -112.0740373, "is_airport": 0, "lat": 33.4483771},
{"location": "Coral Gables, FL", "sighted_at": "19960307", "long": -80.2683838, "is_airport": 0, "lat": 25.72149},
{"location": "Bethesda, MD", "sighted_at": "19960322", "long": -77.0947092, "is_airport": 0, "lat": 38.984652},
{"location": "San Diego, CA", "sighted_at": "19960405", "long": -117.1610838, "is_airport": 0, "lat": 32.715738},
{"location": "Boise, ID", "sighted_at": "19960615", "long": -116.2146068, "is_airport": 0, "lat": 43.6187102},
{"location": "Boise, ID", "sighted_at": "19960309", "long": -116.2146068, "is_airport": 0, "lat": 43.6187102},
{"location": "San Diego, CA", "sighted_at": "19960405", "long": -117.1610838, "is_airport": 0, "lat": 32.715738},
{"location": "Edwards AFB, CA", "sighted_at": "19960225", "long": -117.8912085, "is_airport": 0, "lat": 34.9240314},
{"location": "Seattle, WA", "sighted_at": "19960209", "long": -122.3320708, "is_airport": 0, "lat": 47.6062095},
{"location": "Las Vegas, NV", "sighted_at": "19960403", "long": -115.1398296, "is_airport": 0, "lat": 36.1699412},
{"location": "Cincinnati, OH", "sighted_at": "19921224", "long": -84.5120196, "is_airport": 0, "lat": 39.1031182},
{"location": "Spokane, WA", "sighted_at": "19960430", "long": -117.4260465, "is_airport": 0, "lat": 47.6587802},
{"location": "Birmingham, AL", "sighted_at": "19961211", "long": -86.80249, "is_airport": 0, "lat": 33.5206608},
{"location": "Fort Smith, AR", "sighted_at": "19960103", "long": -94.3985475, "is_airport": 0, "lat": 35.3859242},
{"location": "Fontana, CA", "sighted_at": "19961226", "long": -117.435048, "is_airport": 0, "lat": 34.0922335},
{"location": "Phoenix, AZ", "sighted_at": "19960101", "long": -112.0740373, "is_airport": 0, "lat": 33.4483771},
{"location": "St. Petersburg, FL", "sighted_at": "19960319", "long": -82.6402915, "is_airport": 0, "lat": 27.7676008},
{"location": "Memphis, TN", "sighted_at": "19960411", "long": -90.0489801, "is_airport": 0, "lat": 35.1495343},
{"location": "Seatac, WA", "sighted_at": "19960301", "long": -122.2960726, "is_airport": 0, "lat": 47.4435903},
{"location": "Seattle, WA", "sighted_at": "19960327", "long": -122.3320708, "is_airport": 0, "lat": 47.6062095},
{"location": "Seattle, WA", "sighted_at": "19960612", "long": -122.3320708, "is_airport": 0, "lat": 47.6062095},
{"location": "Seattle, WA", "sighted_at": "19961205", "long": -122.3320708, "is_airport": 0, "lat": 47.6062095},
{"location": "Henderson, NV", "sighted_at": "19960307", "long": -114.9817213, "is_airport": 0, "lat": 36.0395247},
{"location": "Tucson, AZ", "sighted_at": "19950101", "long": -110.926479, "is_airport": 0, "lat": 32.2217429},
{"location": "Boise, ID", "sighted_at": "19951214", "long": -116.2146068, "is_airport": 0, "lat": 43.6187102},
{"location": "Hayward, CA", "sighted_at": "19960103", "long": -122.1232721, "is_airport": 0, "lat": 37.6606696},
{"location": "Tempe, AZ", "sighted_at": "19960507", "long": -111.9400054, "is_airport": 0, "lat": 33.4255104},
{"location": "Hollywood, FL", "sighted_at": "19960209", "long": -80.1494901, "is_airport": 0, "lat": 26.0112014},
{"location": "Bradenton, FL", "sighted_at": "19960409", "long": -82.5748194, "is_airport": 0, "lat": 27.4989278},
{"location": "Seattle, WA", "sighted_at": "19960407", "long": -122.3320708, "is_airport": 0, "lat": 47.6062095},
{"location": "Hampton, VA", "sighted_at": "19960518", "long": -76.3452218, "is_airport": 0, "lat": 37.0298687},
{"location": "Rte. 40, CA", "sighted_at": "19951227", "long": -52.855667, "is_airport": 0, "lat": 47.6263786},
{"location": "Huntington, WV", "sighted_at": "19960522", "long": -82.445154, "is_airport": 0, "lat": 38.4192496},
{"location": "Portland, OR", "sighted_at": "19961217", "long": -122.6764815, "is_airport": 0, "lat": 45.5230622},
{"location": "Seattle, WA", "sighted_at": "19961127", "long": -122.3320708, "is_airport": 0, "lat": 47.6062095},
{"location": "Bellevue, WA", "sighted_at": "19961128", "long": -122.2015159, "is_airport": 0, "lat": 47.6101497},
{"location": "Reno, NV", "sighted_at": "19961222", "long": -119.8138027, "is_airport": 0, "lat": 39.5296329},
{"location": "Federal Way, WA", "sighted_at": "19951120", "long": -122.3126222, "is_airport": 0, "lat": 47.3223221},
{"location": "Sydney", "sighted_at": "19970117", "long": 151.2092955, "is_airport": 0, "lat": -33.8688197},
{"location": "San Jose, CA", "sighted_at": "19960427", "long": -121.8863286, "is_airport": 0, "lat": 37.3382082},
{"location": "Seattle, WA", "sighted_at": "19960227", "long": -122.3320708, "is_airport": 0, "lat": 47.6062095},
{"location": "Edwards AFB, CA", "sighted_at": "19960224", "long": -117.8912085, "is_airport": 0, "lat": 34.9240314},
{"location": "Campbell, CA", "sighted_at": "19740801", "long": -121.9499568, "is_airport": 0, "lat": 37.2871651},
{"location": "Portland, OR", "sighted_at": "19960202", "long": -122.6764815, "is_airport": 0, "lat": 45.5230622},
{"location": "Springfield, IL", "sighted_at": "19951209", "long": -89.6501481, "is_airport": 0, "lat": 39.7817213},
{"location": "Woodland, CA", "sighted_at": "19960320", "long": -121.7732971, "is_airport": 0, "lat": 38.6785157},
{"location": "Memphis, TN", "sighted_at": "19951121", "long": -90.0489801, "is_airport": 0, "lat": 35.1495343},
{"location": "Seattle, WA", "sighted_at": "19961217", "long": -122.3320708, "is_airport": 0, "lat": 47.6062095},
{"location": "Seattle, WA", "sighted_at": "19960320", "long": -122.3320708, "is_airport": 0, "lat": 47.6062095},
{"location": "Altus AFB, OK", "sighted_at": "19970122", "long": -99.3367788, "is_airport": 0, "lat": 34.6687334},
{"location": "Scottsdale, AZ", "sighted_at": "19960514", "long": -111.9260519, "is_airport": 0, "lat": 33.4941704},
{"location": "Reno, NV", "sighted_at": "19961013", "long": -119.8138027, "is_airport": 0, "lat": 39.5296329},
{"location": "Richmond, VA", "sighted_at": "19960423", "long": -77.4360481, "is_airport": 0, "lat": 37.5407246},
{"location": "Austin, TX", "sighted_at": "19960324", "long": -97.7430608, "is_airport": 0, "lat": 30.267153},
{"location": "Seattle, WA", "sighted_at": "19960301", "long": -122.3320708, "is_airport": 0, "lat": 47.6062095},
{"location": "Seattle, WA", "sighted_at": "19960612", "long": -122.3320708, "is_airport": 0, "lat": 47.6062095},
{"location": "Baltimore, MD", "sighted_at": "19960528", "long": -76.6121893, "is_airport": 0, "lat": 39.2903848},
{"location": "Reno, NV", "sighted_at": "19950831", "long": -119.8138027, "is_airport": 0, "lat": 39.5296329},
{"location": "Chicago, IL", "sighted_at": "19960630", "long": -87.6297982, "is_airport": 0, "lat": 41.8781136},
{"location": "Portland, OR", "sighted_at": "19960107", "long": -122.6764815, "is_airport": 0, "lat": 45.5230622},
{"location": "Seattle, WA", "sighted_at": "19960619", "long": -122.3320708, "is_airport": 0, "lat": 47.6062095},
{"location": "Gardena, CA", "sighted_at": "19960508", "long": -118.3089624, "is_airport": 0, "lat": 33.8883487},
{"location": "Scottsdale, AZ", "sighted_at": "19951218", "long": -111.9260519, "is_airport": 0, "lat": 33.4941704},
{"location": "San Bruno, CA", "sighted_at": "19960505", "long": -122.4110835, "is_airport": 0, "lat": 37.6304904},
{"location": "Vashon Island, WA", "sighted_at": "19961130", "long": -122.4598502, "is_airport": 0, "lat": 47.4473204},
{"location": "West Reno, NV", "sighted_at": "19820515", "long": -119.8510267, "is_airport": 0, "lat": 39.5151884},
{"location": "Seattle, WA", "sighted_at": "19960302", "long": -122.3320708, "is_airport": 0, "lat": 47.6062095},
{"location": "Seattle, WA", "sighted_at": "19960116", "long": -122.3320708, "is_airport": 0, "lat": 47.6062095},
{"location": "St. Louis, MO", "sighted_at": "19970704", "long": -90.3889622, "is_airport": 0, "lat": 38.7309378},
{"location": "Bellevelle area college, IL", "sighted_at": "19970704", "long": -89.923345, "is_airport": 0, "lat": 38.516694},
{"location": "Gaston, SC", "sighted_at": "19970712", "long": -81.1009286, "is_airport": 0, "lat": 33.8170974},
{"location": "Phoenix, AZ", "sighted_at": "19970403", "long": -112.0740373, "is_airport": 0, "lat": 33.4483771},
{"location": "Jackson, MS", "sighted_at": "19771224", "long": -90.1848103, "is_airport": 0, "lat": 32.2987573},
{"location": "Spanaway, WA", "sighted_at": "19970603", "long": -122.4345661, "is_airport": 0, "lat": 47.103988},
{"location": "Orlando, FL", "sighted_at": "19970423", "long": -81.3792365, "is_airport": 0, "lat": 28.5383355},
{"location": "near St.Peters/St.Charles but too high to tell, MO", "sighted_at": "19970704", "long": -90.6512349, "is_airport": 0, "lat": 38.8000581},
{"location": "Scottsdale, AZ", "sighted_at": "19971004", "long": -111.9260519, "is_airport": 0, "lat": 33.4941704},
{"location": "Sun Prairie, WI", "sighted_at": "19970327", "long": -89.2137254, "is_airport": 0, "lat": 43.1836046},
{"location": "Scottsdale, AZ", "sighted_at": "19970313", "long": -111.9260519, "is_airport": 0, "lat": 33.4941704},
{"location": "Hurst, TX", "sighted_at": "19961228", "long": -97.1705678, "is_airport": 0, "lat": 32.8234621},
{"location": "Bremen", "sighted_at": "19901115", "long": 8.8071646, "is_airport": 0, "lat": 53.0758196},
{"location": "Austin, TX", "sighted_at": "19970102", "long": -97.7430608, "is_airport": 0, "lat": 30.267153},
{"location": "Florissant, MO", "sighted_at": "19970704", "long": -90.322614, "is_airport": 0, "lat": 38.789217},
{"location": "Chicago, IL", "sighted_at": "19970915", "long": -87.6297982, "is_airport": 0, "lat": 41.8781136},
{"location": "Brisbane", "sighted_at": "19960418", "long": 153.0251235, "is_airport": 0, "lat": -27.4697707},
{"location": "St. Petersburg, FL", "sighted_at": "19910613", "long": -82.6402915, "is_airport": 0, "lat": 27.7676008},
{"location": "Chicago, IL", "sighted_at": "19971120", "long": -87.6297982, "is_airport": 0, "lat": 41.8781136},
{"location": "Bloomington, MN", "sighted_at": "19970809", "long": -93.2982799, "is_airport": 0, "lat": 44.840798},
{"location": "Scottsdale, AZ", "sighted_at": "19870723", "long": -111.9260519, "is_airport": 0, "lat": 33.4941704},
{"location": "Fontana, CA", "sighted_at": "19900701", "long": -117.435048, "is_airport": 0, "lat": 34.0922335},
{"location": "Spokane, WA", "sighted_at": "19970422", "long": -117.4260465, "is_airport": 0, "lat": 47.6587802},
{"location": "Florissant, MO", "sighted_at": "19970704", "long": -90.322614, "is_airport": 0, "lat": 38.789217},
{"location": "Manoa Valley, HI", "sighted_at": "19970921", "long": -157.8033266, "is_airport": 0, "lat": 21.3159023},
{"location": "Las Vegas, NV", "sighted_at": "19970305", "long": -115.1398296, "is_airport": 0, "lat": 36.1699412},
{"location": "Alameda, CA", "sighted_at": "19790601", "long": -122.2416355, "is_airport": 0, "lat": 37.7652065},
{"location": "Dallas, TX", "sighted_at": "19971015", "long": -96.7969879, "is_airport": 0, "lat": 32.7766642},
{"location": "Columbus, OH", "sighted_at": "19700601", "long": -82.9987942, "is_airport": 0, "lat": 39.9611755},
{"location": "Austin, TX", "sighted_at": "19971107", "long": -97.7430608, "is_airport": 0, "lat": 30.267153},
{"location": "Belleville Community College, IL", "sighted_at": "19970704", "long": -89.923345, "is_airport": 0, "lat": 38.516694},
{"location": "San Diego, CA", "sighted_at": "19850630", "long": -117.1610838, "is_airport": 0, "lat": 32.715738},
{"location": "Oklahoma City, OK", "sighted_at": "19970516", "long": -97.5164276, "is_airport": 0, "lat": 35.4675602},
{"location": "Seattle, WA", "sighted_at": "19970919", "long": -122.3320708, "is_airport": 0, "lat": 47.6062095},
{"location": "Phoenix, AZ", "sighted_at": "19970313", "long": -112.0740373, "is_airport": 0, "lat": 33.4483771},
{"location": "San Diego, CA", "sighted_at": "19960405", "long": -117.1610838, "is_airport": 0, "lat": 32.715738},
{"location": "Redondo Beach, CA", "sighted_at": "19971114", "long": -118.3884078, "is_airport": 0, "lat": 33.8491816},
{"location": "West Palm Beach, FL", "sighted_at": "19971115", "long": -80.0533746, "is_airport": 0, "lat": 26.7153424},
{"location": "Vancouver, WA", "sighted_at": "19970614", "long": -122.6716063, "is_airport": 0, "lat": 45.6318397},
{"location": "Mooresville, IN", "sighted_at": "19781101", "long": -86.37416, "is_airport": 0, "lat": 39.6128243},
{"location": "Nun's Island, PQ", "sighted_at": "19970721", "long": -73.5463761, "is_airport": 0, "lat": 45.4615233},
{"location": "Ottawa, ON", "sighted_at": "19970511", "long": -75.6971931, "is_airport": 0, "lat": 45.4215296},
{"location": "Belleville, IL", "sighted_at": "19970704", "long": -89.8550095, "is_airport": 0, "lat": 38.5415911},
{"location": "Austin, TX", "sighted_at": "19971107", "long": -97.7430608, "is_airport": 0, "lat": 30.267153},
{"location": "Honolulu, HI", "sighted_at": "19800812", "long": -157.8583333, "is_airport": 0, "lat": 21.3069444},
{"location": "Blountville, TN", "sighted_at": "19971024", "long": -82.326806, "is_airport": 0, "lat": 36.5331586},
{"location": "Phoenix, AZ", "sighted_at": "19970621", "long": -112.0740373, "is_airport": 0, "lat": 33.4483771},
{"location": "Mountain View, CA", "sighted_at": "19970316", "long": -122.0838511, "is_airport": 0, "lat": 37.3860517},
{"location": "San Diego, CA", "sighted_at": "19971014", "long": -117.1610838, "is_airport": 0, "lat": 32.715738},
{"location": "Sumter, SC", "sighted_at": "19941205", "long": -80.3414693, "is_airport": 0, "lat": 33.9204354},
{"location": "Renton, WA", "sighted_at": "19971114", "long": -122.2170661, "is_airport": 0, "lat": 47.4828776},
{"location": "Seattle, WA", "sighted_at": "19971211", "long": -122.3320708, "is_airport": 0, "lat": 47.6062095},
{"location": "Sacramento, CA", "sighted_at": "19971028", "long": -121.4943996, "is_airport": 0, "lat": 38.5815719},
{"location": "Christchurch", "sighted_at": "19940601", "long": 172.6362254, "is_airport": 0, "lat": -43.5320544},
{"location": "Suisun, CA", "sighted_at": "19970419", "long": -122.040244, "is_airport": 0, "lat": 38.2382474},
{"location": "St. Charles, MO", "sighted_at": "19970704", "long": -90.4974359, "is_airport": 0, "lat": 38.7881062},
{"location": "Seattle, WA", "sighted_at": "19970403", "long": -122.3320708, "is_airport": 0, "lat": 47.6062095},
{"location": "Wichita, KS", "sighted_at": "19970806", "long": -97.330053, "is_airport": 0, "lat": 37.6871761},
{"location": "Scottsdale, AZ", "sighted_at": "19950928", "long": -111.9260519, "is_airport": 0, "lat": 33.4941704},
{"location": "Phoenix, AZ", "sighted_at": "19970313", "long": -112.0740373, "is_airport": 0, "lat": 33.4483771},
{"location": "Morrow, GA", "sighted_at": "19730801", "long": -84.3393683, "is_airport": 0, "lat": 33.5831662},
{"location": "Phoenix, AZ", "sighted_at": "19970313", "long": -112.0740373, "is_airport": 0, "lat": 33.4483771},
{"location": "Memphis, TN", "sighted_at": "19890101", "long": -90.0489801, "is_airport": 0, "lat": 35.1495343},
{"location": "Green Bay, WI", "sighted_at": "19971102", "long": -88.019826, "is_airport": 0, "lat": 44.519159},
{"location": "Kent, WA", "sighted_at": "19971209", "long": -122.2270272, "is_airport": 0, "lat": 47.3826903},
{"location": "Seattle, WA", "sighted_at": "19970506", "long": -122.3320708, "is_airport": 0, "lat": 47.6062095},
{"location": "Lubbock, TX", "sighted_at": "19971212", "long": -101.8551665, "is_airport": 0, "lat": 33.5778631},
{"location": "Sao Paulo", "sighted_at": "19750315", "long": -46.6333094, "is_airport": 0, "lat": -23.5505199},
{"location": "Fairbanks, AK", "sighted_at": "19931123", "long": -147.7163888, "is_airport": 0, "lat": 64.8377778},
{"location": "Tucson, AZ", "sighted_at": "19971115", "long": -110.926479, "is_airport": 0, "lat": 32.2217429},
{"location": "Seattle, WA", "sighted_at": "19970423", "long": -122.3320708, "is_airport": 0, "lat": 47.6062095},
{"location": "Reno, NV", "sighted_at": "19970420", "long": -119.8138027, "is_airport": 0, "lat": 39.5296329},
{"location": "North San Diego, CA", "sighted_at": "19971216", "long": -117.1610838, "is_airport": 0, "lat": 32.715738},
{"location": "Reno, NV", "sighted_at": "19971209", "long": -119.8138027, "is_airport": 0, "lat": 39.5296329},
{"location": "College, UT", "sighted_at": "19970511", "long": -97.7354371, "is_airport": 0, "lat": 30.2848797},
{"location": "Renton, WA", "sighted_at": "19971114", "long": -122.2170661, "is_airport": 0, "lat": 47.4828776},
{"location": "Seattle, WA", "sighted_at": "19970620", "long": -122.3320708, "is_airport": 0, "lat": 47.6062095},
{"location": "Albuquerque, NM", "sighted_at": "19940424", "long": -106.6055534, "is_airport": 0, "lat": 35.0853336},
{"location": "Reno, NV", "sighted_at": "19971115", "long": -119.8138027, "is_airport": 0, "lat": 39.5296329},
{"location": "St. Charles, MO", "sighted_at": "19970704", "long": -90.4974359, "is_airport": 0, "lat": 38.7881062},
{"location": "Lakewood, WA", "sighted_at": "19970420", "long": -122.518458, "is_airport": 0, "lat": 47.1717649},
{"location": "Reno, NV", "sighted_at": "19971209", "long": -119.8138027, "is_airport": 0, "lat": 39.5296329},
{"location": "Newport, OR", "sighted_at": "19971109", "long": -117.881157, "is_airport": 0, "lat": 33.610489},
{"location": "Phoenix, AZ", "sighted_at": "19970313", "long": -112.0740373, "is_airport": 0, "lat": 33.4483771},
{"location": "Tempe, AZ", "sighted_at": "19970313", "long": -111.9400054, "is_airport": 0, "lat": 33.4255104},
{"location": "Reno/Sparks, NV", "sighted_at": "19970712", "long": -119.7526886, "is_airport": 0, "lat": 39.5349112},
{"location": "Granite City, IL", "sighted_at": "19970704", "long": -90.385298, "is_airport": 0, "lat": 38.688183},
{"location": "Charleston, WV", "sighted_at": "19970311", "long": -81.6326234, "is_airport": 0, "lat": 38.3498195},
{"location": "Newark, NJ", "sighted_at": "19970612", "long": -74.2176746, "is_airport": 0, "lat": 40.7397414},
{"location": "Malta, MT", "sighted_at": "19971118", "long": 14.4476911, "is_airport": 0, "lat": 35.8885993},
{"location": "Gorham, ME", "sighted_at": "19970711", "long": -70.4442252, "is_airport": 0, "lat": 43.6795314},
{"location": "Miami Beach, FL", "sighted_at": "19960723", "long": -80.1300455, "is_airport": 0, "lat": 25.790654},
{"location": "Norco, CA", "sighted_at": "19970814", "long": -117.5147559, "is_airport": 0, "lat": 33.9549173},
{"location": "Buffalo, NY", "sighted_at": "19971013", "long": -78.8783689, "is_airport": 0, "lat": 42.8864468},
{"location": "Norfolk, VA", "sighted_at": "19971024", "long": -76.2858726, "is_airport": 0, "lat": 36.8507689},
{"location": "Billings, MT", "sighted_at": "19971023", "long": -108.5006904, "is_airport": 0, "lat": 45.7832856},
{"location": "Houston, TX", "sighted_at": "19971024", "long": -95.3698028, "is_airport": 0, "lat": 29.7604267},
{"location": "Northwest Tempe, AZ", "sighted_at": "19970313", "long": -111.972956, "is_airport": 0, "lat": 33.377788},
{"location": "Halandri", "sighted_at": "19860701", "long": 23.7986297, "is_airport": 0, "lat": 38.0213307},
{"location": "Albuquerque, NM", "sighted_at": "19971122", "long": -106.6055534, "is_airport": 0, "lat": 35.0853336},
{"location": "Wichita Falls, TX", "sighted_at": "19971123", "long": -98.510735, "is_airport": 0, "lat": 33.9685715},
{"location": "Sacramento, CA", "sighted_at": "19971130", "long": -121.4943996, "is_airport": 0, "lat": 38.5815719},
{"location": "Spokane, WA", "sighted_at": "19710610", "long": -117.4260465, "is_airport": 0, "lat": 47.6587802},
{"location": "Port Wentworth, GA", "sighted_at": "19970403", "long": -81.163168, "is_airport": 0, "lat": 32.149092},
{"location": "Springfield, MO", "sighted_at": "19971120", "long": -93.2920373, "is_airport": 0, "lat": 37.2166779},
{"location": "Pooler, GA", "sighted_at": "19970530", "long": -81.2470574, "is_airport": 0, "lat": 32.115481},
{"location": "Dallas, TX", "sighted_at": "19970418", "long": -96.7969879, "is_airport": 0, "lat": 32.7766642},
{"location": "Monreal, PQ", "sighted_at": "19970411", "long": -73.567256, "is_airport": 0, "lat": 45.5016889},
{"location": "Frontenac, MO", "sighted_at": "19970704", "long": -90.4151181, "is_airport": 0, "lat": 38.635608},
{"location": "Spain", "sighted_at": "19970606", "long": -3.74922, "is_airport": 0, "lat": 40.463667},
{"location": "Minneapolis, MN", "sighted_at": "19971025", "long": -93.2650108, "is_airport": 0, "lat": 44.977753},
{"location": "Phoenix, AZ", "sighted_at": "19970313", "long": -112.0357137, "is_airport": 0, "lat": 33.3122624},
{"location": "Phoenix, AZ", "sighted_at": "19970313", "long": -111.9400054, "is_airport": 0, "lat": 33.4255104},
{"location": "Quincy, MA", "sighted_at": "19970607", "long": -71.0022705, "is_airport": 0, "lat": 42.2528772},
{"location": "Dallas/Ft Worth, TX", "sighted_at": "19971114", "long": -97.0403352, "is_airport": 0, "lat": 32.8998091},
{"location": "Seattle, WA", "sighted_at": "19971104", "long": -122.3320708, "is_airport": 0, "lat": 47.6062095},
{"location": "Phoenix, AZ", "sighted_at": "19970521", "long": -112.0740373, "is_airport": 0, "lat": 33.4483771},
{"location": "Portland, OR", "sighted_at": "19970517", "long": -122.6764815, "is_airport": 0, "lat": 45.5230622},
{"location": "Brentwood, TN", "sighted_at": "19970703", "long": -86.7827772, "is_airport": 0, "lat": 36.0331164},
{"location": "Guadelupe, AZ", "sighted_at": "19970219", "long": -111.9629216, "is_airport": 0, "lat": 33.3708798},
{"location": "Austin, TX", "sighted_at": "19970505", "long": -97.7430608, "is_airport": 0, "lat": 30.267153},
{"location": "Montreal, PQ", "sighted_at": "19970503", "long": -73.567256, "is_airport": 0, "lat": 45.5016889},
{"location": "Weehawken, NJ", "sighted_at": "19971023", "long": -74.0253715, "is_airport": 0, "lat": 40.7663711},
{"location": "Oakland, CA", "sighted_at": "19971114", "long": -122.2711137, "is_airport": 0, "lat": 37.8043637},
{"location": "Goose Creek, SC", "sighted_at": "19961030", "long": -80.0325867, "is_airport": 0, "lat": 32.9810059},
{"location": "Phoenix, AZ", "sighted_at": "19970509", "long": -112.0740373, "is_airport": 0, "lat": 33.4483771},
{"location": "San Jose, CA", "sighted_at": "19970514", "long": -121.9175232, "is_airport": 0, "lat": 37.346165},
{"location": "Hazelwood, MO", "sighted_at": "19970704", "long": -90.3709489, "is_airport": 0, "lat": 38.7714396},
{"location": "Creve Coeur, MO", "sighted_at": "19970704", "long": -90.422618, "is_airport": 0, "lat": 38.6608855},
{"location": "Washington, D.C., DC", "sighted_at": "19970728", "long": -77.0368707, "is_airport": 0, "lat": 38.9071923},
{"location": "Phoenix, AZ", "sighted_at": "19970725", "long": -112.0740373, "is_airport": 0, "lat": 33.4483771},
{"location": "Portland, OR", "sighted_at": "19971114", "long": -122.6764815, "is_airport": 0, "lat": 45.5230622},
{"location": "Seattle, WA", "sighted_at": "19970307", "long": -122.3320708, "is_airport": 0, "lat": 47.6062095},
{"location": "Alaska Airlines/Sea-Tac to Anchorage, BC", "sighted_at": "19971114", "long": -149.9820125, "is_airport": 0, "lat": 61.1742346},
{"location": "Reno, NV", "sighted_at": "19971013", "long": -119.8138027, "is_airport": 0, "lat": 39.5296329},
{"location": "Santa Monica, CA", "sighted_at": "19970507", "long": -118.4911912, "is_airport": 0, "lat": 34.0194543},
{"location": "Kenner, LA", "sighted_at": "19971012", "long": -90.236907, "is_airport": 0, "lat": 30.0175732},
{"location": "Portland, OR", "sighted_at": "19970617", "long": -122.5929657, "is_airport": 0, "lat": 45.4914215},
{"location": "Mesa, AZ", "sighted_at": "19970313", "long": -111.871868, "is_airport": 0, "lat": 33.391072},
{"location": "Greenfield, WI", "sighted_at": "19970601", "long": -88.0125865, "is_airport": 0, "lat": 42.9614039},
{"location": "Phoenix, AZ", "sighted_at": "19970706", "long": -112.0740373, "is_airport": 0, "lat": 33.4483771},
{"location": "Philadelphia, PA", "sighted_at": "19970817", "long": -75.1652215, "is_airport": 0, "lat": 39.9525839},
{"location": "San Antonio, TX", "sighted_at": "19970212", "long": -98.4936282, "is_airport": 0, "lat": 29.4241219},
{"location": "Seattle, WA", "sighted_at": "19971114", "long": -122.3320708, "is_airport": 0, "lat": 47.6062095},
{"location": "Santa Ana, CA", "sighted_at": "19971031", "long": -117.867653, "is_airport": 0, "lat": 33.7454725},
{"location": "Fairfield, CA", "sighted_at": "19971024", "long": -122.0399663, "is_airport": 0, "lat": 38.2493581},
{"location": "Burnaby, BC", "sighted_at": "19971114", "long": -122.9805104, "is_airport": 0, "lat": 49.2488091},
{"location": "Houston, TX", "sighted_at": "19970428", "long": -95.3698028, "is_airport": 0, "lat": 29.7604267},
{"location": "Historic St. Charles Riverfront, MO", "sighted_at": "19970704", "long": -90.4853022, "is_airport": 0, "lat": 38.773987},
{"location": "Seattle, WA", "sighted_at": "19971112", "long": -122.3320708, "is_airport": 0, "lat": 47.6062095},
{"location": "Hayward, CA", "sighted_at": "19970605", "long": -122.0807964, "is_airport": 0, "lat": 37.6688205},
{"location": "Houston, TX", "sighted_at": "19970601", "long": -95.3698028, "is_airport": 0, "lat": 29.7604267},
{"location": "Fairview Heights, IL", "sighted_at": "19970704", "long": -89.990382, "is_airport": 0, "lat": 38.5889386},
{"location": "Phoenix, AZ", "sighted_at": "19970313", "long": -112.0740373, "is_airport": 0, "lat": 33.4483771},
{"location": "Little Rock, AR", "sighted_at": "19961224", "long": -92.2895948, "is_airport": 0, "lat": 34.7464809},
{"location": "Austin, TX", "sighted_at": "19970614", "long": -97.7430608, "is_airport": 0, "lat": 30.267153},
{"location": "Belleville, IL", "sighted_at": "19970704", "long": -89.9839935, "is_airport": 0, "lat": 38.5200504},
{"location": "Oakton, VA", "sighted_at": "19970315", "long": -77.3008172, "is_airport": 0, "lat": 38.8809451},
{"location": "Las Vegas, NV", "sighted_at": "19970408", "long": -115.1398296, "is_airport": 0, "lat": 36.1699412},
{"location": "Desert, NM", "sighted_at": "19651001", "long": -106.699667, "is_airport": 0, "lat": 35.1211459},
{"location": "St. Paul, MN", "sighted_at": "19971128", "long": -93.0899578, "is_airport": 0, "lat": 44.9537029},
{"location": "Chattanooga, TN", "sighted_at": "19970801", "long": -85.3096801, "is_airport": 0, "lat": 35.0456297},
{"location": "Renton, WA", "sighted_at": "19970608", "long": -122.2170661, "is_airport": 0, "lat": 47.4828776},
{"location": "Chesterfield, MO", "sighted_at": "19970704", "long": -90.5770675, "is_airport": 0, "lat": 38.6631083},
{"location": "Houston, TX", "sighted_at": "19970328", "long": -95.3698028, "is_airport": 0, "lat": 29.7604267},
{"location": "Ladson, SC", "sighted_at": "19850615", "long": -80.1098123, "is_airport": 0, "lat": 32.9857275},
{"location": "Long Beach, NY", "sighted_at": "19970115", "long": -73.657908, "is_airport": 0, "lat": 40.5884373},
{"location": "Greensboro, NC", "sighted_at": "19970622", "long": -79.7919754, "is_airport": 0, "lat": 36.0726354},
{"location": "Glendale, AZ", "sighted_at": "19970312", "long": -112.4046831, "is_airport": 0, "lat": 33.558997},
{"location": "Ringgold, GA", "sighted_at": "19951118", "long": -85.1091173, "is_airport": 0, "lat": 34.9159099},
{"location": "Salt Lake City, UT", "sighted_at": "19970313", "long": -111.8910474, "is_airport": 0, "lat": 40.7607793},
{"location": "Hazelwood, MO", "sighted_at": "19970714", "long": -90.3709489, "is_airport": 0, "lat": 38.7714396},
{"location": "St. Charles, MO", "sighted_at": "19970704", "long": -90.4974359, "is_airport": 0, "lat": 38.7881062},
{"location": "Whitestone, NY", "sighted_at": "19910601", "long": -73.8184674, "is_airport": 0, "lat": 40.7945457},
{"location": "Colorado Springs, CO", "sighted_at": "19970407", "long": -104.8213634, "is_airport": 0, "lat": 38.8338816},
{"location": "Federal Way, WA", "sighted_at": "19980422", "long": -122.3393103, "is_airport": 0, "lat": 47.313494},
{"location": "Glen Burnie, MD", "sighted_at": "19980214", "long": -76.6246886, "is_airport": 0, "lat": 39.1626084},
{"location": "San Lorenzo, CA", "sighted_at": "19650601", "long": -122.1244088, "is_airport": 0, "lat": 37.6810422},
{"location": "Pasadena, TX", "sighted_at": "19951224", "long": -95.2091006, "is_airport": 0, "lat": 29.6910625},
{"location": "Colorado Springs, CO", "sighted_at": "19980517", "long": -104.8213634, "is_airport": 0, "lat": 38.8338816},
{"location": "Southaven, MS", "sighted_at": "19980315", "long": -90.0022958, "is_airport": 0, "lat": 34.9918587},
{"location": "Bangor, ME", "sighted_at": "19980227", "long": -68.7778138, "is_airport": 0, "lat": 44.8011821},
{"location": "Charlotte, NC", "sighted_at": "19971001", "long": -80.8431267, "is_airport": 0, "lat": 35.2270869},
{"location": "Tempe, AZ", "sighted_at": "19980324", "long": -111.9400054, "is_airport": 0, "lat": 33.4255104},
{"location": "Tampa, FL", "sighted_at": "19980418", "long": -82.4571776, "is_airport": 0, "lat": 27.950575},
{"location": "Chesterfield, MO", "sighted_at": "19980608", "long": -90.5770675, "is_airport": 0, "lat": 38.6631083},
{"location": "Roy, WA", "sighted_at": "19970815", "long": -122.539846, "is_airport": 0, "lat": 47.0042643},
{"location": "Columbus, OH", "sighted_at": "19980220", "long": -82.9987942, "is_airport": 0, "lat": 39.9611755},
{"location": "Costa Mesa, CA", "sighted_at": "19980409", "long": -117.9188221, "is_airport": 0, "lat": 33.6412156},
{"location": "Spokane, WA", "sighted_at": "19980613", "long": -117.4260465, "is_airport": 0, "lat": 47.6587802},
{"location": "Miami, FL", "sighted_at": "19961124", "long": -80.1917902, "is_airport": 0, "lat": 25.7616798},
{"location": "Fort Lewis, WA", "sighted_at": "19980410", "long": -122.4857321, "is_airport": 0, "lat": 47.1342432},
{"location": "Toledo/Maumee, OH", "sighted_at": "19980215", "long": -83.6538244, "is_airport": 0, "lat": 41.5628294},
{"location": "Colorado Springs, CO", "sighted_at": "19911115", "long": -104.8213634, "is_airport": 0, "lat": 38.8338816},
{"location": "Temple Terrace, FL", "sighted_at": "19980307", "long": -82.3892596, "is_airport": 0, "lat": 28.0352964},
{"location": "Madison, WI", "sighted_at": "19831201", "long": -89.4012302, "is_airport": 0, "lat": 43.0730517},
{"location": "Dorchester, MA", "sighted_at": "19970301", "long": -71.067605, "is_airport": 0, "lat": 42.3016305},
{"location": "Houston, TX", "sighted_at": "19790131", "long": -95.3698028, "is_airport": 0, "lat": 29.7604267},
{"location": "Hayward, CA", "sighted_at": "19970714", "long": -122.0807964, "is_airport": 0, "lat": 37.6688205},
{"location": "Dallas, TX", "sighted_at": "19980130", "long": -96.7969879, "is_airport": 0, "lat": 32.7766642},
{"location": "Woodland, WA", "sighted_at": "19980127", "long": -122.3508373, "is_airport": 0, "lat": 47.6681464},
{"location": "Seattle, WA", "sighted_at": "19980923", "long": -122.3320708, "is_airport": 0, "lat": 47.6062095},
{"location": "Austin, TX", "sighted_at": "19980402", "long": -97.7430608, "is_airport": 0, "lat": 30.267153},
{"location": "Hawii, HI", "sighted_at": "19980704", "long": -157.835698, "is_airport": 0, "lat": 21.285002},
{"location": "West Palm Beach, FL", "sighted_at": "19980307", "long": -80.1835628, "is_airport": 0, "lat": 26.6805094},
{"location": "Las Vegas, NV", "sighted_at": "19980126", "long": -115.1398296, "is_airport": 0, "lat": 36.1699412},
{"location": "Dallas, TX", "sighted_at": "19980529", "long": -96.7969879, "is_airport": 0, "lat": 32.7766642},
{"location": "Salt Lake City, UT", "sighted_at": "19980517", "long": -111.8910474, "is_airport": 0, "lat": 40.7607793},
{"location": "Portland, OR", "sighted_at": "19980502", "long": -122.6764815, "is_airport": 0, "lat": 45.5230622},
{"location": "Los Gatos, CA", "sighted_at": "19780301", "long": -121.9623751, "is_airport": 0, "lat": 37.2358078},
{"location": "Bedford Park, IL", "sighted_at": "19980424", "long": -87.7812524, "is_airport": 0, "lat": 41.7641723},
{"location": "Houston, TX", "sighted_at": "19980224", "long": -95.3698028, "is_airport": 0, "lat": 29.7604267},
{"location": "Southampton", "sighted_at": "19980306", "long": -1.4043509, "is_airport": 0, "lat": 50.9097004},
{"location": "Colorado Springs, CO", "sighted_at": "19980922", "long": -104.8213634, "is_airport": 0, "lat": 38.8338816},
{"location": "Atlanta, GA", "sighted_at": "19910520", "long": -84.396285, "is_airport": 0, "lat": 33.7756178},
{"location": "Las Vegas, NV", "sighted_at": "19961117", "long": -115.1398296, "is_airport": 0, "lat": 36.1699412},
{"location": "Sacramento, CA", "sighted_at": "19940526", "long": -121.4943996, "is_airport": 0, "lat": 38.5815719},
{"location": "Scott A.F.B., IL", "sighted_at": "19910415", "long": -89.8550095, "is_airport": 0, "lat": 38.5415911},
{"location": "Houston, TX", "sighted_at": "19980923", "long": -95.3698028, "is_airport": 0, "lat": 29.7604267},
{"location": "Kent, WA", "sighted_at": "19980923", "long": -122.2348432, "is_airport": 0, "lat": 47.3809335},
{"location": "Eagan, MN", "sighted_at": "19980426", "long": -93.1668858, "is_airport": 0, "lat": 44.8041322},
{"location": "Kaneohe, HI", "sighted_at": "19980124", "long": -157.7973653, "is_airport": 0, "lat": 21.3996475},
{"location": "North Little Rock, AR", "sighted_at": "19980422", "long": -92.2670941, "is_airport": 0, "lat": 34.769536},
{"location": "Orlando, FL", "sighted_at": "19980307", "long": -81.3792365, "is_airport": 0, "lat": 28.5383355},
{"location": "Guadalajara, Jalisco", "sighted_at": "19840216", "long": -103.3496092, "is_airport": 0, "lat": 20.6596988},
{"location": "Miami, FL", "sighted_at": "19980127", "long": -80.1917902, "is_airport": 0, "lat": 25.7616798},
{"location": "Salt Lake City, UT", "sighted_at": "19980523", "long": -111.8910474, "is_airport": 0, "lat": 40.7607793},
{"location": "Wichita, KS", "sighted_at": "19980308", "long": -97.330053, "is_airport": 0, "lat": 37.6871761},
{"location": "Seattle, WA", "sighted_at": "19980313", "long": -122.3320708, "is_airport": 0, "lat": 47.6062095},
{"location": "Milpitas, CA", "sighted_at": "19980416", "long": -121.8995741, "is_airport": 0, "lat": 37.4323341},
{"location": "Memphis, TN", "sighted_at": "19980504", "long": -90.0489801, "is_airport": 0, "lat": 35.1495343},
{"location": "Minneapolis, MN", "sighted_at": "19650808", "long": -93.2650108, "is_airport": 0, "lat": 44.977753},
{"location": "Security, CO", "sighted_at": "19791010", "long": -104.7404269, "is_airport": 0, "lat": 38.7640957},
{"location": "Madison, WI", "sighted_at": "19980525", "long": -89.4012302, "is_airport": 0, "lat": 43.0730517},
{"location": "Duluth, MN", "sighted_at": "19980215", "long": -92.1004852, "is_airport": 0, "lat": 46.7866719},
{"location": "Tucson, AZ", "sighted_at": "19980309", "long": -110.926479, "is_airport": 0, "lat": 32.2217429},
{"location": "Tulsa, OK", "sighted_at": "19980313", "long": -95.992775, "is_airport": 0, "lat": 36.1539816},
{"location": "New York City, NY", "sighted_at": "19970310", "long": -74.0059728, "is_airport": 0, "lat": 40.7127753},
{"location": "Arlington, VA", "sighted_at": "19900505", "long": -77.0909809, "is_airport": 0, "lat": 38.8816208},
{"location": "Vancouver, BC", "sighted_at": "19980924", "long": -123.1207375, "is_airport": 0, "lat": 49.2827291},
{"location": "Phoenix, AZ", "sighted_at": "19980529", "long": -112.0740373, "is_airport": 0, "lat": 33.4483771},
{"location": "Roanoke, VA", "sighted_at": "19980415", "long": -79.9414266, "is_airport": 0, "lat": 37.2709704},
{"location": "Rochester, NY", "sighted_at": "19960501", "long": -77.6109219, "is_airport": 0, "lat": 43.16103},
{"location": "South Point, OH", "sighted_at": "19970415", "long": -82.5862699, "is_airport": 0, "lat": 38.4178597},
{"location": "Milwaukee, WI", "sighted_at": "19980327", "long": -87.9064736, "is_airport": 0, "lat": 43.0389025},
{"location": "Browns Valley, CA", "sighted_at": "19980923", "long": -121.4091297, "is_airport": 0, "lat": 39.2421139},
{"location": "Glenview, IL", "sighted_at": "19980418", "long": -87.8114044, "is_airport": 0, "lat": 42.0700662},
{"location": "Indianapolis, IN", "sighted_at": "19980522", "long": -86.1583502, "is_airport": 0, "lat": 39.7683331},
{"location": "Tacoma, WA", "sighted_at": "19980314", "long": -122.4442906, "is_airport": 0, "lat": 47.2528768},
{"location": "Nashville, TN", "sighted_at": "19980225", "long": -86.7743531, "is_airport": 0, "lat": 36.1622296},
{"location": "San Jose, CA", "sighted_at": "19980313", "long": -121.8863286, "is_airport": 0, "lat": 37.3382082},
{"location": "Tucson, AZ", "sighted_at": "19980119", "long": -110.926479, "is_airport": 0, "lat": 32.2217429},
{"location": "Tampa, FL", "sighted_at": "19980307", "long": -82.4571776, "is_airport": 0, "lat": 27.950575},
{"location": "Waikiki, HI", "sighted_at": "19830405", "long": -157.835698, "is_airport": 0, "lat": 21.285002},
{"location": "Seattle, WA", "sighted_at": "19980510", "long": -122.3300624, "is_airport": 0, "lat": 47.6038321},
{"location": "Lehigh Acres, FL", "sighted_at": "19980307", "long": -81.6581333, "is_airport": 0, "lat": 26.6040585},
{"location": "Lethbridge, ON", "sighted_at": "19970820", "long": -79.7843076, "is_airport": 0, "lat": 43.7199249},
{"location": "Oklahoma City, OK", "sighted_at": "19930701", "long": -97.5164276, "is_airport": 0, "lat": 35.4675602},
{"location": "Fort Smith, AR", "sighted_at": "19980502", "long": -94.4248983, "is_airport": 0, "lat": 35.3872218},
{"location": "Portland, OR", "sighted_at": "19980326", "long": -122.6764815, "is_airport": 0, "lat": 45.5230622},
{"location": "Lake Worth, FL", "sighted_at": "19840415", "long": -80.0684479, "is_airport": 0, "lat": 26.6167555},
{"location": "Portland, OR", "sighted_at": "19980902", "long": -122.6741949, "is_airport": 0, "lat": 45.5202471},
{"location": "Spokane, WA", "sighted_at": "19780714", "long": -117.4260465, "is_airport": 0, "lat": 47.6587802},
{"location": "Sarasota, FL", "sighted_at": "19980307", "long": -82.5306527, "is_airport": 0, "lat": 27.3364347},
{"location": "Nashville, TN", "sighted_at": "19980104", "long": -86.7743531, "is_airport": 0, "lat": 36.1622296},
{"location": "Orlando, FL", "sighted_at": "19980307", "long": -81.3792365, "is_airport": 0, "lat": 28.5383355},
{"location": "Tampa, FL", "sighted_at": "19980307", "long": -82.458444, "is_airport": 0, "lat": 27.9477595},
{"location": "Spokane, WA", "sighted_at": "19980521", "long": -117.4260465, "is_airport": 0, "lat": 47.6587802},
{"location": "Reno, NV", "sighted_at": "19980606", "long": -119.8138027, "is_airport": 0, "lat": 39.5296329},
{"location": "Houston, TX", "sighted_at": "19730405", "long": -95.3698028, "is_airport": 0, "lat": 29.7604267},
{"location": "Columbia, SC", "sighted_at": "19980310", "long": -81.0348144, "is_airport": 0, "lat": 34.0007104},
{"location": "San Antonio, TX", "sighted_at": "19790515", "long": -98.4936282, "is_airport": 0, "lat": 29.4241219},
{"location": "Renton, WA", "sighted_at": "19980107", "long": -122.2170661, "is_airport": 0, "lat": 47.4828776},
{"location": "Reno, NV", "sighted_at": "19980819", "long": -119.8138027, "is_airport": 0, "lat": 39.5296329},
{"location": "Houston, TX", "sighted_at": "19980923", "long": -95.3698028, "is_airport": 0, "lat": 29.7604267},
{"location": "Syracuse, NY", "sighted_at": "19470714", "long": -76.1474244, "is_airport": 0, "lat": 43.0481221},
{"location": "Liberty Homes, SC", "sighted_at": "19620601", "long": -79.997635, "is_airport": 0, "lat": 33.002469},
{"location": "Norfolk, VA", "sighted_at": "19980305", "long": -76.2481624, "is_airport": 0, "lat": 36.8889933},
{"location": "Colorado Springs, CO", "sighted_at": "19980311", "long": -104.8213634, "is_airport": 0, "lat": 38.8338816},
{"location": "Vancouver, WA", "sighted_at": "19980923", "long": -122.6716063, "is_airport": 0, "lat": 45.6318397},
{"location": "San Antonio, TX", "sighted_at": "19950704", "long": -98.4936282, "is_airport": 0, "lat": 29.4241219},
{"location": "Louisville, KY", "sighted_at": "19970610", "long": -85.631737, "is_airport": 0, "lat": 38.214943},
{"location": "Santiago", "sighted_at": "19841215", "long": -70.6692655, "is_airport": 0, "lat": -33.4488897},
{"location": "North Tonawanda, NY", "sighted_at": "19850812", "long": -78.8642033, "is_airport": 0, "lat": 43.038668},
{"location": "Rochester, NY", "sighted_at": "19980923", "long": -77.6109219, "is_airport": 0, "lat": 43.16103},
{"location": "Colorado Springs, CO", "sighted_at": "19980409", "long": -104.8213634, "is_airport": 0, "lat": 38.8338816},
{"location": "Sarasota, FL", "sighted_at": "19980307", "long": -82.5306527, "is_airport": 0, "lat": 27.3364347},
{"location": "Austin, TX", "sighted_at": "19980420", "long": -97.7430608, "is_airport": 0, "lat": 30.267153},
{"location": "Memphis, TN", "sighted_at": "19980925", "long": -90.0489801, "is_airport": 0, "lat": 35.1495343},
{"location": "Austin, TX", "sighted_at": "19970525", "long": -97.7430608, "is_airport": 0, "lat": 30.267153},
{"location": "Wimborne/Dorset, Dorset", "sighted_at": "19980517", "long": -1.9830004, "is_airport": 0, "lat": 50.8004646},
{"location": "Anchorage, AK", "sighted_at": "19980315", "long": -149.9002778, "is_airport": 0, "lat": 61.2180556},
{"location": "Davie, FL", "sighted_at": "19980528", "long": -80.2521157, "is_airport": 0, "lat": 26.0764783},
{"location": "Chicago, IL", "sighted_at": "19640801", "long": -87.6297982, "is_airport": 0, "lat": 41.8781136},
{"location": "Mountain View, CA", "sighted_at": "19980330", "long": -122.0838511, "is_airport": 0, "lat": 37.3860517},
{"location": "Austin, TX", "sighted_at": "19980209", "long": -97.7430608, "is_airport": 0, "lat": 30.267153},
{"location": "Houston, TX", "sighted_at": "19600312", "long": -95.3698028, "is_airport": 0, "lat": 29.7604267},
{"location": "Hollywood, CA", "sighted_at": "19980923", "long": -123.0008188, "is_airport": 0, "lat": 49.2270892},
{"location": "Phoenix, AZ", "sighted_at": "19980529", "long": -112.0740373, "is_airport": 0, "lat": 33.4483771},
{"location": "Bellevue, WA", "sighted_at": "19980923", "long": -122.2015159, "is_airport": 0, "lat": 47.6101497},
{"location": "New York City/Bronx, NY", "sighted_at": "19980508", "long": -73.8648268, "is_airport": 0, "lat": 40.8447819},
{"location": "Puyallup, WA", "sighted_at": "19980923", "long": -122.2928974, "is_airport": 0, "lat": 47.1853785},
{"location": "Houston, TX", "sighted_at": "19820703", "long": -95.3698028, "is_airport": 0, "lat": 29.7604267},
{"location": "Aventura, FL", "sighted_at": "19980216", "long": -80.1392121, "is_airport": 0, "lat": 25.9564812},
{"location": "Perth", "sighted_at": "19780201", "long": 115.8604796, "is_airport": 0, "lat": -31.9527121},
{"location": "Colorado Springs, CO", "sighted_at": "19980409", "long": -104.8253485, "is_airport": 0, "lat": 38.8339578},
{"location": "Richardson, TX", "sighted_at": "19610615", "long": -96.7298519, "is_airport": 0, "lat": 32.9483335},
{"location": "Colorado Springs, CO", "sighted_at": "19980226", "long": -104.8213634, "is_airport": 0, "lat": 38.8338816},
{"location": "Tucson, AZ", "sighted_at": "19970820", "long": -110.926479, "is_airport": 0, "lat": 32.2217429},
{"location": "West Palm Beach, FL", "sighted_at": "19980307", "long": -80.109955, "is_airport": 0, "lat": 26.719531},
{"location": "Colorado Springs, CO", "sighted_at": "19980428", "long": -104.8213634, "is_airport": 0, "lat": 38.8338816},
{"location": "Austin, TX", "sighted_at": "19980923", "long": -97.7436995, "is_airport": 0, "lat": 30.2711286},
{"location": "Phoenix, AZ", "sighted_at": "19980529", "long": -112.0740373, "is_airport": 0, "lat": 33.4483771},
{"location": "San Diego, CA", "sighted_at": "19951229", "long": -117.1610838, "is_airport": 0, "lat": 32.715738},
{"location": "Phoenix, AZ", "sighted_at": "19980225", "long": -112.0773456, "is_airport": 0, "lat": 33.4485866},
{"location": "Portland, OR", "sighted_at": "19980422", "long": -122.5929657, "is_airport": 0, "lat": 45.4914215},
{"location": "Cannon AFB/Clovis, NM", "sighted_at": "19750601", "long": -103.3183038, "is_airport": 0, "lat": 34.3897838},
{"location": "Kent, WA", "sighted_at": "19740101", "long": -122.2348432, "is_airport": 0, "lat": 47.3809335},
{"location": "Montreal, PQ", "sighted_at": "19980410", "long": -73.567256, "is_airport": 0, "lat": 45.5016889},
{"location": "Los Gatos, CA", "sighted_at": "19860215", "long": -121.9623751, "is_airport": 0, "lat": 37.2358078},
{"location": "Indianapolis, IN", "sighted_at": "19720715", "long": -86.158068, "is_airport": 0, "lat": 39.768403},
{"location": "Baker/Las Vegas, CA", "sighted_at": "19980725", "long": -115.1407, "is_airport": 0, "lat": 36.1469},
{"location": "Barrigada", "sighted_at": "19730110", "long": 144.7991204, "is_airport": 0, "lat": 13.4635155},
{"location": "Dania, FL", "sighted_at": "19980819", "long": -80.1439343, "is_airport": 0, "lat": 26.052311},
{"location": "Sun Prairie, WI", "sighted_at": "19950501", "long": -89.2137254, "is_airport": 0, "lat": 43.1836046},
{"location": "Reno, NV", "sighted_at": "19980629", "long": -119.8138027, "is_airport": 0, "lat": 39.5296329},
{"location": "Huntington Beach, CA", "sighted_at": "19980924", "long": -118.0000166, "is_airport": 0, "lat": 33.6783336},
{"location": "Portland, ME", "sighted_at": "19980724", "long": -70.2553259, "is_airport": 0, "lat": 43.661471},
{"location": "Bettendorf, IA", "sighted_at": "19980630", "long": -90.48344, "is_airport": 0, "lat": 41.56085},
{"location": "Houston, TX", "sighted_at": "19981005", "long": -95.3698028, "is_airport": 0, "lat": 29.7604267},
{"location": "Salt Lake City, UT", "sighted_at": "19970714", "long": -111.8910474, "is_airport": 0, "lat": 40.7607793},
{"location": "Zurich", "sighted_at": "19970902", "long": 8.541694, "is_airport": 0, "lat": 47.3768866},
{"location": "Mt. Vernon, NY", "sighted_at": "19980926", "long": -73.8370786, "is_airport": 0, "lat": 40.9125992},
{"location": "Seattle, WA", "sighted_at": "19981120", "long": -122.3320708, "is_airport": 0, "lat": 47.6062095},
{"location": "Phoenix, AZ", "sighted_at": "19760625", "long": -112.0740373, "is_airport": 0, "lat": 33.4483771},
{"location": "Austin, TX", "sighted_at": "19980624", "long": -3.7020277, "is_airport": 0, "lat": 40.4245005},
{"location": "Vancouver, BC", "sighted_at": "19981110", "long": -123.1207375, "is_airport": 0, "lat": 49.2827291},
{"location": "Franklin Park, IL", "sighted_at": "19980711", "long": -87.879523, "is_airport": 0, "lat": 41.9348537},
{"location": "Louisville, KY", "sighted_at": "19981028", "long": -85.7584557, "is_airport": 0, "lat": 38.2526647},
{"location": "Lompoc, CA", "sighted_at": "19980809", "long": -120.4579409, "is_airport": 0, "lat": 34.6391501},
{"location": "Brampton, ON", "sighted_at": "19940423", "long": -79.7624177, "is_airport": 0, "lat": 43.7315479},
{"location": "Edinburgh", "sighted_at": "19980606", "long": -3.188267, "is_airport": 0, "lat": 55.953252},
{"location": "San Diego/North County, CA", "sighted_at": "19780712", "long": -117.1610838, "is_airport": 0, "lat": 32.715738},
{"location": "Sarasota, FL", "sighted_at": "19830601", "long": -82.5306527, "is_airport": 0, "lat": 27.3364347},
{"location": "Tampa, FL", "sighted_at": "19981117", "long": -82.4571776, "is_airport": 0, "lat": 27.950575},
{"location": "Atlanta, GA", "sighted_at": "19981115", "long": -84.3901849, "is_airport": 0, "lat": 33.7490987},
{"location": "Federal Way, WA", "sighted_at": "19981110", "long": -122.3393103, "is_airport": 0, "lat": 47.313494},
{"location": "Duluth, MN", "sighted_at": "19880125", "long": -92.1251218, "is_airport": 0, "lat": 46.7729322},
{"location": "Memphis, TN", "sighted_at": "19560601", "long": -90.0489801, "is_airport": 0, "lat": 35.1495343},
{"location": "Wheatridge, CO", "sighted_at": "19981111", "long": -97.48237, "is_airport": 0, "lat": 37.727947},
{"location": "Westland, MI", "sighted_at": "19980922", "long": -83.400211, "is_airport": 0, "lat": 42.324204},
{"location": "Springfield, MO", "sighted_at": "19981127", "long": -93.2922989, "is_airport": 0, "lat": 37.2089572},
{"location": "Corpus Christi, TX", "sighted_at": "19980621", "long": -97.396381, "is_airport": 0, "lat": 27.8005828},
{"location": "Portland, OR", "sighted_at": "19981001", "long": -122.6764815, "is_airport": 0, "lat": 45.5230622},
{"location": "Amarillo, TX", "sighted_at": "19981028", "long": -101.8312969, "is_airport": 0, "lat": 35.2219971},
{"location": "Tucson, AZ", "sighted_at": "19980725", "long": -110.926479, "is_airport": 0, "lat": 32.2217429},
{"location": "Steilacoom, WA", "sighted_at": "19980926", "long": -122.6026274, "is_airport": 0, "lat": 47.1698197},
{"location": "Huntington Beach, CA", "sighted_at": "19980802", "long": -117.9988026, "is_airport": 0, "lat": 33.6594835},
{"location": "Rochester, MN", "sighted_at": "19980903", "long": -92.4801989, "is_airport": 0, "lat": 44.0121221},
{"location": "Reno, NV", "sighted_at": "19980422", "long": -119.8136744, "is_airport": 0, "lat": 39.52927},
{"location": "Dublin", "sighted_at": "19981018", "long": -6.3644424, "is_airport": 0, "lat": 53.3825381},
{"location": "Sacramento, CA", "sighted_at": "19980628", "long": -121.4943996, "is_airport": 0, "lat": 38.5815719},
{"location": "Albuquerque, NM", "sighted_at": "19981004", "long": -106.6055534, "is_airport": 0, "lat": 35.0853336},
{"location": "Las Vegas/Nellis AFB, NV", "sighted_at": "19981116", "long": -115.0623166, "is_airport": 0, "lat": 36.1998977},
{"location": "Portland, OR", "sighted_at": "19980912", "long": -122.6764815, "is_airport": 0, "lat": 45.5230622},
{"location": "Fort Lewis, WA", "sighted_at": "19980925", "long": -122.4857321, "is_airport": 0, "lat": 47.1342432},
{"location": "Torrance, CA", "sighted_at": "19980821", "long": -118.3406288, "is_airport": 0, "lat": 33.8358492},
{"location": "Phoenix, AZ", "sighted_at": "19981119", "long": -112.0740373, "is_airport": 0, "lat": 33.4483771},
{"location": "Santa Monica, CA", "sighted_at": "19980612", "long": -118.4911912, "is_airport": 0, "lat": 34.0194543},
{"location": "Austin, TX", "sighted_at": "19980922", "long": -97.7430608, "is_airport": 0, "lat": 30.267153},
{"location": "Tucson, AZ", "sighted_at": "19980124", "long": -110.926479, "is_airport": 0, "lat": 32.2217429},
{"location": "New York City, NY", "sighted_at": "19980924", "long": -74.0059728, "is_airport": 0, "lat": 40.7127753},
{"location": "Shreveport, LA", "sighted_at": "19980804", "long": -93.7501789, "is_airport": 0, "lat": 32.5251516},
{"location": "Friendswoods, TX", "sighted_at": "19980817", "long": -95.2010447, "is_airport": 0, "lat": 29.5293998},
{"location": "Magna, UT", "sighted_at": "19980415", "long": -112.1016088, "is_airport": 0, "lat": 40.7091121},
{"location": "Dayton, OH", "sighted_at": "19680601", "long": -84.1916069, "is_airport": 0, "lat": 39.7589478},
{"location": "Moline, IL", "sighted_at": "19981120", "long": -90.5151342, "is_airport": 0, "lat": 41.5067003},
{"location": "Santa Ana, CA", "sighted_at": "19650720", "long": -117.867653, "is_airport": 0, "lat": 33.7454725},
{"location": "Arlington, VA", "sighted_at": "19970527", "long": -77.0909809, "is_airport": 0, "lat": 38.8816208},
{"location": "Tumwater, WA", "sighted_at": "19981026", "long": -122.2221111, "is_airport": 0, "lat": 47.3242428},
{"location": "Fort Lauderdale, FL", "sighted_at": "19930812", "long": -80.1373174, "is_airport": 0, "lat": 26.1224386},
{"location": "Minneapolis, MN", "sighted_at": "19980828", "long": -93.2650108, "is_airport": 0, "lat": 44.977753},
{"location": "Yuba City, CA", "sighted_at": "19981029", "long": -121.6169108, "is_airport": 0, "lat": 39.1404477},
{"location": "Salt Lake City, UT", "sighted_at": "19980918", "long": -111.8910474, "is_airport": 0, "lat": 40.7607793},
{"location": "Las Vegas, NV", "sighted_at": "19981116", "long": -115.1398296, "is_airport": 0, "lat": 36.1699412},
{"location": "Portland, OR", "sighted_at": "19940515", "long": -122.6764815, "is_airport": 0, "lat": 45.5230622},
{"location": "Vancouver, BC", "sighted_at": "19980929", "long": -123.1207375, "is_airport": 0, "lat": 49.2827291},
{"location": "Tampa, FL", "sighted_at": "19981019", "long": -82.4571776, "is_airport": 0, "lat": 27.950575},
{"location": "Vancouver, WA", "sighted_at": "19981026", "long": -122.6558909, "is_airport": 0, "lat": 45.6223129},
{"location": "Montara, CA", "sighted_at": "19981011", "long": -122.493541, "is_airport": 0, "lat": 37.5494205},
{"location": "Charleston, WV", "sighted_at": "19980727", "long": -81.6326234, "is_airport": 0, "lat": 38.3498195},
{"location": "Central New York, NY", "sighted_at": "19970528", "long": -73.9653551, "is_airport": 0, "lat": 40.7828647},
{"location": "Tucson, AZ", "sighted_at": "19981014", "long": -110.926479, "is_airport": 0, "lat": 32.2217429},
{"location": "Spanaway, WA", "sighted_at": "19980920", "long": -122.4345661, "is_airport": 0, "lat": 47.103988},
{"location": "Hollywood, CA", "sighted_at": "19981010", "long": -123.0008188, "is_airport": 0, "lat": 49.2270892},
{"location": "New York City/Brooklyn, NY", "sighted_at": "19980107", "long": -73.9441579, "is_airport": 0, "lat": 40.6781784},
{"location": "Landover, MD", "sighted_at": "19980824", "long": -76.8966397, "is_airport": 0, "lat": 38.9340002},
{"location": "Ottawa, ON", "sighted_at": "19981017", "long": -75.7104564, "is_airport": 0, "lat": 45.2612722},
{"location": "Columbus, OH", "sighted_at": "19981202", "long": -82.9987942, "is_airport": 0, "lat": 39.9611755},
{"location": "Manchester, NH", "sighted_at": "19981001", "long": -71.4547891, "is_airport": 0, "lat": 42.9956397},
{"location": "Sacramento, CA", "sighted_at": "19930601", "long": -121.4943996, "is_airport": 0, "lat": 38.5815719},
{"location": "Fort Lauderdale, FL", "sighted_at": "19740716", "long": -80.1433786, "is_airport": 0, "lat": 26.1223084},
{"location": "Atlanta, GA", "sighted_at": "19880610", "long": -84.3867972, "is_airport": 0, "lat": 33.747602},
{"location": "St. Charles, MO", "sighted_at": "19760715", "long": -90.4974359, "is_airport": 0, "lat": 38.7881062},
{"location": "Penfield, NY", "sighted_at": "19980627", "long": -77.475551, "is_airport": 0, "lat": 43.1303407},
{"location": "Spokane, WA", "sighted_at": "19981028", "long": -117.4212265, "is_airport": 0, "lat": 47.6579425},
{"location": "Las Vegas, NV", "sighted_at": "19981019", "long": -115.1398296, "is_airport": 0, "lat": 36.1699412},
{"location": "Charlotte, NC", "sighted_at": "19981115", "long": -80.8431267, "is_airport": 0, "lat": 35.2270869},
{"location": "Oakland - Near the Bay Bridge, CA", "sighted_at": "19981009", "long": -122.3326661, "is_airport": 0, "lat": 37.8213564},
{"location": "Salt Lake City, UT", "sighted_at": "19981128", "long": -111.8910474, "is_airport": 0, "lat": 40.7607793},
{"location": "La Jolla, CA", "sighted_at": "19981001", "long": -117.2739079, "is_airport": 0, "lat": 32.8487807},
{"location": "Sunnyvale, CA", "sighted_at": "19891216", "long": -122.0363496, "is_airport": 0, "lat": 37.36883},
{"location": "Irvine, CA", "sighted_at": "19970615", "long": -117.8265049, "is_airport": 0, "lat": 33.6845673},
{"location": "Spokane, WA", "sighted_at": "19981010", "long": -117.4212265, "is_airport": 0, "lat": 47.6579425},
{"location": "Fort Worth, TX", "sighted_at": "19980923", "long": -97.3307658, "is_airport": 0, "lat": 32.7554883},
{"location": "Warner Robins, GA", "sighted_at": "19930209", "long": -83.624201, "is_airport": 0, "lat": 32.6130007},
{"location": "Tulsa, OK", "sighted_at": "19830627", "long": -95.992775, "is_airport": 0, "lat": 36.1539816},
{"location": "Phoenix, AZ", "sighted_at": "19981130", "long": -112.0740373, "is_airport": 0, "lat": 33.4483771},
{"location": "Milwaukee, WI", "sighted_at": "19981024", "long": -87.9064736, "is_airport": 0, "lat": 43.0389025},
{"location": "San Diego, CA", "sighted_at": "19980828", "long": -117.1610838, "is_airport": 0, "lat": 32.715738},
{"location": "Pasadena, MD", "sighted_at": "19980630", "long": -76.5710753, "is_airport": 0, "lat": 39.1073317},
{"location": "Charleston, WV", "sighted_at": "19981127", "long": -81.6332812, "is_airport": 0, "lat": 38.3505995},
{"location": "Milwaukee, WI", "sighted_at": "19980925", "long": -87.8606367, "is_airport": 0, "lat": 42.9105722},
{"location": "Richmond, VA", "sighted_at": "19980623", "long": -77.4360481, "is_airport": 0, "lat": 37.5407246},
{"location": "Clayton, OH", "sighted_at": "19840610", "long": -84.3605022, "is_airport": 0, "lat": 39.8631101},
{"location": "Rochester, NY", "sighted_at": "19980929", "long": -77.6109219, "is_airport": 0, "lat": 43.16103},
{"location": "Schertz, TX", "sighted_at": "19650401", "long": -98.269734, "is_airport": 0, "lat": 29.5521737},
{"location": "Gresham, OR", "sighted_at": "19980613", "long": -122.4486119, "is_airport": 0, "lat": 45.5059203},
{"location": "Washington, D.C., DC", "sighted_at": "19980724", "long": -76.999525, "is_airport": 0, "lat": 38.8860434},
{"location": "Portland, OR", "sighted_at": "19980923", "long": -122.6764815, "is_airport": 0, "lat": 45.5230622},
{"location": "Kaiapoi  Christchurch", "sighted_at": "19981108", "long": 172.6569578, "is_airport": 0, "lat": -43.3830321},
{"location": "Davenport, IA", "sighted_at": "19981117", "long": -90.5776367, "is_airport": 0, "lat": 41.5236437},
{"location": "Santa Rosa, CA", "sighted_at": "19881222", "long": -123.1025059, "is_airport": 0, "lat": 49.2633493},
{"location": "Bradenton, FL", "sighted_at": "19980913", "long": -82.5748194, "is_airport": 0, "lat": 27.4989278},
{"location": "New York City/Brooklyn, NY", "sighted_at": "19980901", "long": -73.9441579, "is_airport": 0, "lat": 40.6781784},
{"location": "Burien/SeaTac, WA", "sighted_at": "19981105", "long": -122.2960726, "is_airport": 0, "lat": 47.4435903},
{"location": "Mishawaka, IN", "sighted_at": "19930712", "long": -86.1586156, "is_airport": 0, "lat": 41.6619927},
{"location": "Scottsdale, AZ", "sighted_at": "19981026", "long": -111.9260519, "is_airport": 0, "lat": 33.4941704},
{"location": "Canton, MI", "sighted_at": "19980720", "long": -83.482116, "is_airport": 0, "lat": 42.3086444},
{"location": "Ellicott City, MD", "sighted_at": "19980628", "long": -76.7983067, "is_airport": 0, "lat": 39.2673283},
{"location": "Dallas, TX", "sighted_at": "19981102", "long": -96.9516926, "is_airport": 0, "lat": 32.9282803},
{"location": "San Bruno, CA", "sighted_at": "19980621", "long": -122.4110835, "is_airport": 0, "lat": 37.6304904},
{"location": "Chicago, IL", "sighted_at": "19981028", "long": -87.6297982, "is_airport": 0, "lat": 41.8781136},
{"location": "Marina del Rey, CA", "sighted_at": "19981026", "long": -118.4517449, "is_airport": 0, "lat": 33.9802893},
{"location": "Kingsport, TN", "sighted_at": "19600915", "long": -82.5618186, "is_airport": 0, "lat": 36.548434},
{"location": "New York City/Brooklyn, NY", "sighted_at": "19980709", "long": -73.9385536, "is_airport": 0, "lat": 40.6391069},
{"location": "Las Vegas, NV", "sighted_at": "19981010", "long": -115.1398296, "is_airport": 0, "lat": 36.1699412},
{"location": "Burien, WA", "sighted_at": "19980704", "long": -122.374063, "is_airport": 0, "lat": 47.450707},
{"location": "Chicago, IL", "sighted_at": "19981023", "long": -87.9073214, "is_airport": 0, "lat": 41.9741625},
{"location": "Louisville, KY", "sighted_at": "19981112", "long": -85.631737, "is_airport": 0, "lat": 38.214943},
{"location": "Chicago, IL", "sighted_at": "19971012", "long": -87.6297982, "is_airport": 0, "lat": 41.8781136},
{"location": "Perth", "sighted_at": "19980802", "long": 115.8604572, "is_airport": 0, "lat": -31.9505269},
{"location": "Maryland Height, MO", "sighted_at": "19981110", "long": -90.4298401, "is_airport": 0, "lat": 38.7131073},
{"location": "Chicago, IL", "sighted_at": "19980711", "long": -87.6297982, "is_airport": 0, "lat": 41.8781136},
{"location": "Montreal, PQ", "sighted_at": "19960721", "long": -73.567256, "is_airport": 0, "lat": 45.5016889},
{"location": "Chesapeake, VA", "sighted_at": "19981028", "long": -76.2858726, "is_airport": 0, "lat": 36.8507689},
{"location": "Charleston, SC", "sighted_at": "19981004", "long": -79.9402728, "is_airport": 0, "lat": 32.7876012},
{"location": "Seattle, WA", "sighted_at": "19980919", "long": -122.3320708, "is_airport": 0, "lat": 47.6062095},
{"location": "Hodgkins, IL", "sighted_at": "19980915", "long": -87.857835, "is_airport": 0, "lat": 41.7689207},
{"location": "Phoenix, AZ", "sighted_at": "19950215", "long": -112.0740373, "is_airport": 0, "lat": 33.4483771},
{"location": "Portland, OR", "sighted_at": "19980803", "long": -122.6764815, "is_airport": 0, "lat": 45.5230622},
{"location": "St. Petersburg, FL", "sighted_at": "19780630", "long": -82.6402915, "is_airport": 0, "lat": 27.7676008},
{"location": "Santa Monica, CA", "sighted_at": "19801209", "long": -118.4911912, "is_airport": 0, "lat": 34.0194543},
{"location": "Belmont, CA", "sighted_at": "19981103", "long": -122.2758008, "is_airport": 0, "lat": 37.5202145},
{"location": "Calgary and Black Diamond, AB", "sighted_at": "19980719", "long": -114.0626694, "is_airport": 0, "lat": 51.0506675},
{"location": "Vashon Island, WA", "sighted_at": "19981122", "long": -122.4598502, "is_airport": 0, "lat": 47.4473204},
{"location": "Newport Beach, CA", "sighted_at": "19940505", "long": -117.9298493, "is_airport": 0, "lat": 33.6188829},
{"location": "Tucson, AZ", "sighted_at": "19980831", "long": -110.926479, "is_airport": 0, "lat": 32.2217429},
{"location": "Bellevue, WA", "sighted_at": "19980923", "long": -122.2015159, "is_airport": 0, "lat": 47.6101497},
{"location": "Seattle to Tokyo", "sighted_at": "19960908", "long": -122.3088165, "is_airport": 0, "lat": 47.4502499},
{"location": "Germantown, TN", "sighted_at": "19981018", "long": -89.8100858, "is_airport": 0, "lat": 35.0867577},
{"location": "Entering the city of Ervine from the South., CA", "sighted_at": "19981120", "long": -117.8442962, "is_airport": 0, "lat": 33.6404952},
{"location": "Albuquerque, NM", "sighted_at": "19980810", "long": -106.6055534, "is_airport": 0, "lat": 35.0853336},
{"location": "Bettendorf, IA", "sighted_at": "19981002", "long": -90.48344, "is_airport": 0, "lat": 41.56085},
{"location": "Long Beach, MS", "sighted_at": "19930915", "long": -89.1528176, "is_airport": 0, "lat": 30.3504751},
{"location": "Superior, WI", "sighted_at": "19980512", "long": -92.1040796, "is_airport": 0, "lat": 46.7207737},
{"location": "Tukwila, WA", "sighted_at": "19980717", "long": -122.2609558, "is_airport": 0, "lat": 47.4739884},
{"location": "Des Moines, WA", "sighted_at": "19980819", "long": -122.3242901, "is_airport": 0, "lat": 47.4017661},
{"location": "Burien, WA", "sighted_at": "19980927", "long": -122.3405305, "is_airport": 0, "lat": 47.4668384},
{"location": "Silverdale  Across from NSB Bangor (Trident Su, WA", "sighted_at": "19980925", "long": -5.6674943, "is_airport": 0, "lat": 54.6638113},